{
  "meta": {
    "city": "vancouver",
    "region": "downtown",
    "updated": "2026-02-26"
  },
  "amenities": [
    {
      "id": "shelter-van-2",
      "type": "shelter",
      "name": "Belkin House",
      "address": "555 Homer St",
      "intersection": "Downtown",
      "region": "downtown",
      "hours": "Call for hours",
      "phone": "604-681-3405",
      "lat": 49.28245838143064,
      "lng": -123.11293968534518,
      "notes": "",
      "category": "Adults (all genders)",
      "nearby_routes": [
        "003",
        "004",
        "005",
        "006",
        "007",
        "008",
        "010",
        "014",
        "016",
        "017",
        "019",
        "020",
        "022",
        "044",
        "050",
        "209",
        "210",
        "211",
        "214",
        "240",
        "241",
        "246",
        "247",
        "250",
        "253",
        "254",
        "257",
        "Canada Line",
        "Expo Line",
        "N10",
        "N15",
        "N17",
        "N19",
        "N20",
        "N22",
        "N24",
        "N35",
        "N8",
        "N9",
        "R5",
        "SeaBus",
        "WCE"
      ]
    },
    {
      "id": "shelter-van-3",
      "type": "shelter",
      "name": "Catholic Charities Men's Hostel",
      "address": "828 Cambie St",
      "intersection": "Downtown",
      "region": "downtown",
      "hours": "Call for hours",
      "phone": "604-443-3292",
      "lat": 49.27769337237721,
      "lng": -123.1147756731615,
      "notes": "",
      "category": "Men",
      "nearby_routes": [
        "004",
        "005",
        "006",
        "007",
        "010",
        "014",
        "016",
        "017",
        "020",
        "023",
        "050",
        "240",
        "241",
        "246",
        "247",
        "250",
        "253",
        "254",
        "257",
        "Expo Line",
        "N10",
        "N15",
        "N17",
        "N24",
        "N9"
      ]
    },
    {
      "id": "shelter-van-4",
      "type": "shelter",
      "name": "Union Gospel Mission",
      "address": "601 E Hastings St (Hastings & Princess)",
      "intersection": "Strathcona",
      "region": "downtown",
      "hours": "Call for hours",
      "phone": "604-253-3323",
      "lat": 49.281871703205425,
      "lng": -123.09098604679792,
      "notes": "Meals available",
      "category": "Men",
      "nearby_routes": [
        "004",
        "007",
        "014",
        "016",
        "020",
        "209",
        "210",
        "211",
        "214",
        "N20",
        "N35"
      ]
    },
    {
      "id": "shelter-van-6",
      "type": "shelter",
      "name": "Triage",
      "address": "620 Powell St",
      "intersection": "Strathcona",
      "region": "downtown",
      "hours": "Call for hours",
      "phone": "604-254-3700",
      "lat": 49.28325701333048,
      "lng": -123.08914065335308,
      "notes": "",
      "category": "Adults (all genders)",
      "nearby_routes": [
        "004",
        "007",
        "014",
        "016",
        "020",
        "209",
        "210",
        "211",
        "214",
        "N20",
        "N35"
      ]
    },
    {
      "id": "shelter-van-7",
      "type": "shelter",
      "name": "Anchor of Hope",
      "address": "616 Powell St (Powell & Gore)",
      "intersection": "Downtown",
      "region": "downtown",
      "hours": "Call for hours",
      "phone": "604-646-6899",
      "lat": 49.282056211986955,
      "lng": -123.10109474719326,
      "notes": "Meals available",
      "category": "Adults (all genders)",
      "nearby_routes": [
        "003",
        "004",
        "007",
        "008",
        "014",
        "016",
        "019",
        "020",
        "022",
        "023",
        "050",
        "209",
        "210",
        "211",
        "214",
        "N19",
        "N20",
        "N35",
        "N8",
        "R5"
      ]
    },
    {
      "id": "shelter-van-8",
      "type": "shelter",
      "name": "The Haven",
      "address": "616 Powell St",
      "intersection": "Downtown",
      "region": "downtown",
      "hours": "Call for hours",
      "phone": "604-646-6800",
      "lat": 49.282056211986955,
      "lng": -123.10109474719326,
      "notes": "",
      "category": "Men",
      "nearby_routes": [
        "003",
        "004",
        "007",
        "008",
        "014",
        "016",
        "019",
        "020",
        "022",
        "023",
        "050",
        "209",
        "210",
        "211",
        "214",
        "N19",
        "N20",
        "N35",
        "N8",
        "R5"
      ]
    },
    {
      "id": "shelter-van-10",
      "type": "shelter",
      "name": "Aboriginal Shelter",
      "address": "385 E 2nd Ave (2nd & Quebec)",
      "intersection": "Strathcona",
      "region": "downtown",
      "hours": "Call for hours",
      "phone": "604-347-0299",
      "lat": 49.27157435253819,
      "lng": -123.09934686157887,
      "notes": "Meals available; Pets allowed; Carts allowed",
      "category": "Adults (all genders)",
      "nearby_routes": [
        "003",
        "008",
        "019",
        "022",
        "023",
        "084",
        "Expo Line",
        "N19",
        "N8"
      ]
    },
    {
      "id": "shelter-van-11",
      "type": "shelter",
      "name": "First Baptist Church",
      "address": "969 Burrard St",
      "intersection": "West End",
      "region": "downtown",
      "hours": "Call for hours",
      "phone": "604-683-8441",
      "lat": 49.281851154764425,
      "lng": -123.12645824751823,
      "notes": "Meals available",
      "category": "Adults (all genders)",
      "nearby_routes": [
        "002",
        "004",
        "005",
        "006",
        "007",
        "010",
        "014",
        "016",
        "044",
        "050",
        "240",
        "241",
        "246",
        "247",
        "250",
        "253",
        "254",
        "257",
        "N10",
        "N17",
        "N22",
        "N24",
        "N9"
      ]
    },
    {
      "id": "shelter-van-12",
      "type": "shelter",
      "name": "Dusk to Dawn-Directions Youth Centre",
      "address": "1138 Richards St",
      "intersection": "Downtown",
      "region": "downtown",
      "hours": "Call for hours",
      "phone": "604-633-1472",
      "lat": 49.27956687773119,
      "lng": -123.12780362309378,
      "notes": "Meals available",
      "category": "Youth (all genders)",
      "nearby_routes": [
        "002",
        "004",
        "006",
        "007",
        "010",
        "014",
        "016",
        "044",
        "050",
        "N10",
        "N17",
        "N22",
        "N9"
      ]
    },
    {
      "id": "shelter-van-13",
      "type": "shelter",
      "name": "First United Church",
      "address": "320 E Hastings St (Hastings & Gore)",
      "intersection": "Strathcona",
      "region": "downtown",
      "hours": "Call for hours",
      "phone": "604-681-8365",
      "lat": 49.28098552764485,
      "lng": -123.09704179173589,
      "notes": "Meals available; Pets allowed; Carts allowed",
      "category": "Adults (all genders)",
      "nearby_routes": [
        "003",
        "004",
        "007",
        "008",
        "014",
        "016",
        "019",
        "020",
        "022",
        "023",
        "050",
        "209",
        "210",
        "211",
        "214",
        "N19",
        "N20",
        "N35",
        "N8",
        "R5"
      ]
    },
    {
      "id": "shelter-van-15",
      "type": "shelter",
      "name": "The Beacon",
      "address": "616 Powell St (Powell & Gore)",
      "intersection": "Downtown",
      "region": "downtown",
      "hours": "Call for hours",
      "phone": "604-646-6846",
      "lat": 49.282056211986955,
      "lng": -123.10109474719326,
      "notes": "",
      "category": "Men",
      "nearby_routes": [
        "003",
        "004",
        "007",
        "008",
        "014",
        "016",
        "019",
        "020",
        "022",
        "023",
        "050",
        "209",
        "210",
        "211",
        "214",
        "N19",
        "N20",
        "N35",
        "N8",
        "R5"
      ]
    },
    {
      "id": "shelter-van-16",
      "type": "shelter",
      "name": "Crosswalk",
      "address": "749 E Hastings St",
      "intersection": "Downtown",
      "region": "downtown",
      "hours": "Call for hours",
      "phone": "604-669-4349",
      "lat": 49.28180507947213,
      "lng": -123.10767247883172,
      "notes": "",
      "category": "Adults (all genders)",
      "nearby_routes": [
        "003",
        "004",
        "005",
        "006",
        "007",
        "008",
        "010",
        "014",
        "016",
        "017",
        "019",
        "020",
        "022",
        "023",
        "044",
        "050",
        "209",
        "210",
        "211",
        "214",
        "257",
        "Expo Line",
        "N15",
        "N19",
        "N20",
        "N22",
        "N24",
        "N35",
        "N8",
        "R5"
      ]
    },
    {
      "id": "shelter-van-17",
      "type": "shelter",
      "name": "Lookout Downtown",
      "address": "54 W Hastings St",
      "intersection": "Strathcona",
      "region": "downtown",
      "hours": "Call for hours",
      "phone": "604-681-9126",
      "lat": 49.28374408771319,
      "lng": -123.09620765787055,
      "notes": "Pets allowed",
      "category": "Adults (all genders)",
      "nearby_routes": [
        "003",
        "004",
        "007",
        "008",
        "014",
        "016",
        "019",
        "020",
        "022",
        "050",
        "209",
        "210",
        "211",
        "214",
        "N19",
        "N20",
        "N35",
        "N8",
        "R5"
      ]
    },
    {
      "id": "washroom-van-1",
      "type": "washroom",
      "name": "Andy Livingstone Park \u2014 South side, fieldhouse",
      "address": "South side, fieldhouse, Downtown",
      "intersection": "Downtown",
      "region": "downtown",
      "hours": "10:00 am - 11:00 pm",
      "phone": "",
      "lat": 49.27782096548506,
      "lng": -123.10359902275324,
      "notes": "Wheelchair accessible",
      "nearby_routes": [
        "003",
        "004",
        "007",
        "008",
        "014",
        "016",
        "019",
        "020",
        "022",
        "023",
        "050",
        "209",
        "210",
        "211",
        "214",
        "Expo Line",
        "N19",
        "N20",
        "N35",
        "N8"
      ]
    },
    {
      "id": "washroom-van-6",
      "type": "washroom",
      "name": "English Bay Beach Park \u2014 Bathhouse",
      "address": "Bathhouse, West End",
      "intersection": "West End",
      "region": "downtown",
      "hours": "7:00 am - Dusk",
      "phone": "",
      "lat": 49.28615403908275,
      "lng": -123.14280496653117,
      "notes": "Wheelchair accessible",
      "nearby_routes": [
        "005",
        "006",
        "023"
      ]
    },
    {
      "id": "washroom-van-18",
      "type": "washroom",
      "name": "Oppenheimer Park \u2014 North east corner",
      "address": "North east corner, Strathcona",
      "intersection": "Strathcona",
      "region": "downtown",
      "hours": "Tue - Sat 9:00 am - 8:00 pm",
      "phone": "",
      "lat": 49.28272631667144,
      "lng": -123.09382210202949,
      "notes": "",
      "nearby_routes": [
        "003",
        "004",
        "007",
        "008",
        "014",
        "016",
        "020",
        "022",
        "209",
        "210",
        "211",
        "214",
        "N20",
        "N35",
        "N8",
        "R5"
      ]
    },
    {
      "id": "washroom-van-27",
      "type": "washroom",
      "name": "Carnegie Centre \u2014 401 Main St",
      "address": "401 Main St, Downtown",
      "intersection": "Downtown",
      "region": "downtown",
      "hours": "as per CC operating hours",
      "phone": "",
      "lat": 49.28105198363986,
      "lng": -123.1001272122058,
      "notes": "",
      "nearby_routes": [
        "003",
        "004",
        "007",
        "008",
        "014",
        "016",
        "019",
        "020",
        "022",
        "023",
        "050",
        "209",
        "210",
        "211",
        "214",
        "N19",
        "N20",
        "N35",
        "N8",
        "R5"
      ]
    },
    {
      "id": "washroom-van-28",
      "type": "washroom",
      "name": "Coal Harbour \u2014 480 Broughton St",
      "address": "480 Broughton St, Downtown",
      "intersection": "Downtown",
      "region": "downtown",
      "hours": "as per CC operating hours",
      "phone": "",
      "lat": 49.29029937889089,
      "lng": -123.12505292931658,
      "notes": "",
      "nearby_routes": [
        "005",
        "019",
        "022",
        "209",
        "210",
        "211",
        "214",
        "240",
        "241",
        "246",
        "247",
        "250",
        "253",
        "254",
        "N24"
      ]
    },
    {
      "id": "washroom-van-35",
      "type": "washroom",
      "name": "Ray-Cam Co-Operative Center \u2014 920 E Hastings St",
      "address": "920 E Hastings St, Strathcona",
      "intersection": "Strathcona",
      "region": "downtown",
      "hours": "as per CC operating hours",
      "phone": "",
      "lat": 49.28073616037968,
      "lng": -123.0840893336462,
      "notes": "",
      "nearby_routes": [
        "004",
        "007",
        "014",
        "016",
        "020",
        "022",
        "209",
        "N20",
        "N35"
      ]
    },
    {
      "id": "washroom-van-36",
      "type": "washroom",
      "name": "Strathcona \u2014 601 Keefer St",
      "address": "601 Keefer St, Strathcona",
      "intersection": "Strathcona",
      "region": "downtown",
      "hours": "as per CC operating hours",
      "phone": "",
      "lat": 49.27977979183258,
      "lng": -123.09154620769539,
      "notes": "",
      "nearby_routes": [
        "004",
        "007",
        "014",
        "016",
        "020",
        "022",
        "209",
        "210",
        "211",
        "214",
        "N20",
        "N35"
      ]
    },
    {
      "id": "washroom-van-43",
      "type": "washroom",
      "name": "Stanley Park \u2014 Prospect Point",
      "address": "Prospect Point",
      "intersection": "",
      "region": "downtown",
      "hours": "Dawn to Dusk",
      "phone": "",
      "lat": 49.312411041976254,
      "lng": -123.14264883145943,
      "notes": "Wheelchair accessible"
    },
    {
      "id": "washroom-van-44",
      "type": "washroom",
      "name": "Stanley Park \u2014 Ceperley Picnic Shelter",
      "address": "Ceperley Picnic Shelter",
      "intersection": "",
      "region": "downtown",
      "hours": "Dawn to Dusk",
      "phone": "",
      "lat": 49.29359490462253,
      "lng": -123.14868000781655,
      "notes": "Wheelchair accessible"
    },
    {
      "id": "washroom-van-45",
      "type": "washroom",
      "name": "Stanley Park \u2014 Train, Picnic Shelter",
      "address": "Train, Picnic Shelter",
      "intersection": "",
      "region": "downtown",
      "hours": "Dawn to Dusk",
      "phone": "",
      "lat": 49.30206900196944,
      "lng": -123.13292304169951,
      "notes": "Wheelchair accessible",
      "nearby_routes": [
        "019"
      ]
    },
    {
      "id": "washroom-van-46",
      "type": "washroom",
      "name": "Stanley Park \u2014 Info Booth",
      "address": "Info Booth",
      "intersection": "",
      "region": "downtown",
      "hours": "Dawn to Dusk",
      "phone": "",
      "lat": 49.297753013375036,
      "lng": -123.13143296597215,
      "notes": "Wheelchair accessible",
      "nearby_routes": [
        "019"
      ]
    },
    {
      "id": "washroom-van-47",
      "type": "washroom",
      "name": "Stanley Park \u2014 Totems",
      "address": "Totems",
      "intersection": "",
      "region": "downtown",
      "hours": "Dawn to Dusk",
      "phone": "",
      "lat": 49.29944002245292,
      "lng": -123.12127801954024,
      "notes": "Wheelchair accessible"
    },
    {
      "id": "washroom-van-53",
      "type": "washroom",
      "name": "Coopers' Park \u2014 East side of baskeball court",
      "address": "East side of baskeball court, Downtown",
      "intersection": "Downtown",
      "region": "downtown",
      "hours": "24 hrs",
      "phone": "",
      "lat": 49.2730422860486,
      "lng": -123.11441858743608,
      "notes": "Wheelchair accessible",
      "nearby_routes": [
        "006",
        "017",
        "023",
        "N15"
      ]
    },
    {
      "id": "washroom-van-55",
      "type": "washroom",
      "name": " \u2014 Powell St and Main St",
      "address": "Powell St and Main St, Downtown",
      "intersection": "Downtown",
      "region": "downtown",
      "hours": "24hrs - 24hrs",
      "phone": "",
      "lat": 49.28327564458233,
      "lng": -123.09985255600299,
      "notes": "",
      "nearby_routes": [
        "003",
        "004",
        "007",
        "008",
        "014",
        "016",
        "019",
        "020",
        "022",
        "050",
        "209",
        "210",
        "211",
        "214",
        "N19",
        "N20",
        "N35",
        "N8",
        "R5"
      ]
    },
    {
      "id": "washroom-van-56",
      "type": "washroom",
      "name": " \u2014 Richards St and Davie St, Emery Barnes Park",
      "address": "Richards St and Davie St, Emery Barnes Park, Downtown",
      "intersection": "Downtown",
      "region": "downtown",
      "hours": "24hrs - 24hrs",
      "phone": "",
      "lat": 49.27604879059326,
      "lng": -123.12409855430495,
      "notes": "",
      "nearby_routes": [
        "002",
        "004",
        "006",
        "007",
        "010",
        "014",
        "016",
        "017",
        "023",
        "044",
        "050",
        "Canada Line",
        "N10",
        "N15",
        "N17",
        "N22",
        "N9"
      ]
    },
    {
      "id": "washroom-van-57",
      "type": "washroom",
      "name": " \u2014 Main St and E Hastings St",
      "address": "Main St and E Hastings St, Downtown",
      "intersection": "Downtown",
      "region": "downtown",
      "hours": "8am (female) 6am (male) - Midnight",
      "phone": "",
      "lat": 49.281101387413884,
      "lng": -123.09983455686559,
      "notes": "",
      "nearby_routes": [
        "003",
        "004",
        "007",
        "008",
        "014",
        "016",
        "019",
        "020",
        "022",
        "023",
        "050",
        "209",
        "210",
        "211",
        "214",
        "N19",
        "N20",
        "N35",
        "N8",
        "R5"
      ]
    },
    {
      "id": "washroom-van-58",
      "type": "washroom",
      "name": " \u2014 W Hastings St and Carral St - Pigeon Park",
      "address": "W Hastings St and Carral St - Pigeon Park, Downtown",
      "intersection": "Downtown",
      "region": "downtown",
      "hours": "9am - 9pm",
      "phone": "",
      "lat": 49.28163278844592,
      "lng": -123.104586555944,
      "notes": "",
      "nearby_routes": [
        "003",
        "004",
        "005",
        "006",
        "007",
        "008",
        "014",
        "016",
        "017",
        "019",
        "020",
        "022",
        "023",
        "050",
        "209",
        "210",
        "211",
        "214",
        "Expo Line",
        "N15",
        "N19",
        "N20",
        "N24",
        "N35",
        "N8",
        "R5"
      ]
    },
    {
      "id": "washroom-van-59",
      "type": "washroom",
      "name": " \u2014 Bute St, Nelson Park",
      "address": "Bute St, Nelson Park, West End",
      "intersection": "West End",
      "region": "downtown",
      "hours": "24hrs - 24hrs",
      "phone": "",
      "lat": 49.283372391399475,
      "lng": -123.13066155087947,
      "notes": "Wheelchair accessible",
      "nearby_routes": [
        "002",
        "005",
        "006",
        "044",
        "N22"
      ]
    },
    {
      "id": "washroom-van-60",
      "type": "washroom",
      "name": " \u2014 Bute at Davie",
      "address": "Bute at Davie, West End",
      "intersection": "West End",
      "region": "downtown",
      "hours": "24hrs - 24hrs",
      "phone": "",
      "lat": 49.282049830178636,
      "lng": -123.13309096598627,
      "notes": "Wheelchair accessible",
      "nearby_routes": [
        "002",
        "006",
        "023",
        "044",
        "N22"
      ]
    },
    {
      "id": "washroom-van-61",
      "type": "washroom",
      "name": " \u2014 Robson St and Granville St",
      "address": "Robson St and Granville St, Downtown",
      "intersection": "Downtown",
      "region": "downtown",
      "hours": "6am - 10pm",
      "phone": "",
      "lat": 49.28162689042433,
      "lng": -123.12006655436043,
      "notes": "Wheelchair accessible",
      "nearby_routes": [
        "002",
        "004",
        "005",
        "007",
        "010",
        "014",
        "016",
        "017",
        "019",
        "020",
        "022",
        "044",
        "050",
        "209",
        "210",
        "211",
        "214",
        "240",
        "241",
        "246",
        "247",
        "250",
        "253",
        "254",
        "257",
        "Canada Line",
        "Expo Line",
        "N10",
        "N15",
        "N17",
        "N19",
        "N20",
        "N22",
        "N24",
        "N35",
        "N8",
        "N9"
      ]
    },
    {
      "id": "washroom-van-63",
      "type": "washroom",
      "name": "Barclay Heritage Square \u2014 Barclay Manor (WECC)",
      "address": "Barclay Manor (WECC), West End",
      "intersection": "West End",
      "region": "downtown",
      "hours": "as per CC operating hours",
      "phone": "",
      "lat": 49.28721486907015,
      "lng": -123.1325605108117,
      "notes": "",
      "nearby_routes": [
        "005",
        "006",
        "019",
        "240",
        "241",
        "246",
        "247",
        "250",
        "253",
        "254",
        "N24"
      ]
    },
    {
      "id": "washroom-van-70",
      "type": "washroom",
      "name": "David Lam Park \u2014 West side",
      "address": "West side, Downtown",
      "intersection": "Downtown",
      "region": "downtown",
      "hours": "10:00 am - Dusk",
      "phone": "",
      "lat": 49.272383006627635,
      "lng": -123.12541503573894,
      "notes": "",
      "nearby_routes": [
        "004",
        "006",
        "007",
        "010",
        "014",
        "016",
        "023",
        "050",
        "Canada Line",
        "N10",
        "N17",
        "N9"
      ]
    },
    {
      "id": "washroom-van-73",
      "type": "washroom",
      "name": "Harbour Green Park \u2014 Central",
      "address": "Central, Downtown",
      "intersection": "Downtown",
      "region": "downtown",
      "hours": "Dawn to Dusk",
      "phone": "",
      "lat": 49.289804013552704,
      "lng": -123.12146699909357,
      "notes": "",
      "nearby_routes": [
        "002",
        "019",
        "022",
        "044",
        "209",
        "210",
        "211",
        "214",
        "240",
        "241",
        "246",
        "247",
        "250",
        "253",
        "254",
        "Expo Line",
        "N24",
        "R5"
      ]
    },
    {
      "id": "washroom-van-79",
      "type": "washroom",
      "name": "Strathcona Park \u2014 South side, fieldhouse",
      "address": "South side, fieldhouse, Strathcona",
      "intersection": "Strathcona",
      "region": "downtown",
      "hours": "Dawn to Dusk",
      "phone": "",
      "lat": 49.27455700573556,
      "lng": -123.08618899110526,
      "notes": "",
      "nearby_routes": [
        "022"
      ]
    },
    {
      "id": "washroom-van-81",
      "type": "washroom",
      "name": "Sunset Beach Park \u2014 Concession",
      "address": "Concession, West End",
      "intersection": "West End",
      "region": "downtown",
      "hours": "Dawn to Dusk",
      "phone": "",
      "lat": 49.27883701378575,
      "lng": -123.13795004381072,
      "notes": "Wheelchair accessible",
      "nearby_routes": [
        "002",
        "006",
        "023",
        "N22"
      ]
    },
    {
      "id": "washroom-van-82",
      "type": "washroom",
      "name": "Trillium Park \u2014 Fieldhouses North of Fields",
      "address": "Fieldhouses North of Fields, Strathcona",
      "intersection": "Strathcona",
      "region": "downtown",
      "hours": "Dawn to 10:15 pm",
      "phone": "",
      "lat": 49.274907788983555,
      "lng": -123.09279211961662,
      "notes": "Wheelchair accessible",
      "nearby_routes": [
        "022",
        "023"
      ]
    },
    {
      "id": "washroom-van-84",
      "type": "washroom",
      "name": "Evelyne Saller Centre \u2014 320 Alexander St",
      "address": "320 Alexander St, Strathcona",
      "intersection": "Strathcona",
      "region": "downtown",
      "hours": "as per CC operating hours",
      "phone": "",
      "lat": 49.283874513136325,
      "lng": -123.09708430739617,
      "notes": "",
      "nearby_routes": [
        "003",
        "004",
        "007",
        "008",
        "014",
        "016",
        "019",
        "020",
        "022",
        "050",
        "209",
        "210",
        "211",
        "214",
        "N19",
        "N20",
        "N35",
        "N8",
        "R5"
      ]
    },
    {
      "id": "washroom-van-88",
      "type": "washroom",
      "name": "Roundhouse \u2014 181 Roundhouse Mews",
      "address": "181 Roundhouse Mews, Downtown",
      "intersection": "Downtown",
      "region": "downtown",
      "hours": "as per CC operating hours",
      "phone": "",
      "lat": 49.27331410685403,
      "lng": -123.12187292336924,
      "notes": "",
      "nearby_routes": [
        "004",
        "006",
        "007",
        "010",
        "014",
        "016",
        "017",
        "023",
        "050",
        "Canada Line",
        "N10",
        "N15",
        "N17",
        "N9"
      ]
    },
    {
      "id": "washroom-van-89",
      "type": "washroom",
      "name": "West End \u2014 870 Denman St",
      "address": "870 Denman St, West End",
      "intersection": "West End",
      "region": "downtown",
      "hours": "as per CC operating hours",
      "phone": "",
      "lat": 49.28991296095473,
      "lng": -123.13607377734198,
      "notes": "",
      "nearby_routes": [
        "005",
        "006",
        "019",
        "023",
        "044",
        "240",
        "241",
        "246",
        "247",
        "250",
        "253",
        "254",
        "257",
        "N24"
      ]
    },
    {
      "id": "washroom-van-95",
      "type": "washroom",
      "name": "Stanley Park \u2014 Prospect Point Picnic, fieldhouse",
      "address": "Prospect Point Picnic, fieldhouse",
      "intersection": "",
      "region": "downtown",
      "hours": "Dawn to Dusk",
      "phone": "",
      "lat": 49.31055002745758,
      "lng": -123.14838804055677,
      "notes": "Wheelchair accessible"
    },
    {
      "id": "washroom-van-96",
      "type": "washroom",
      "name": "Stanley Park \u2014 2nd Beach, fieldhouse",
      "address": "2nd Beach, fieldhouse",
      "intersection": "",
      "region": "downtown",
      "hours": "Dawn to Dusk",
      "phone": "",
      "lat": 49.295531100617225,
      "lng": -123.15058105411318,
      "notes": "Wheelchair accessible"
    },
    {
      "id": "washroom-van-97",
      "type": "washroom",
      "name": "Stanley Park \u2014 3rd Beach, fieldhouse",
      "address": "3rd Beach, fieldhouse",
      "intersection": "",
      "region": "downtown",
      "hours": "Dawn to Dusk",
      "phone": "",
      "lat": 49.303152991485184,
      "lng": -123.15593104827661,
      "notes": "Wheelchair accessible"
    },
    {
      "id": "washroom-van-98",
      "type": "washroom",
      "name": "Stanley Park \u2014 Brockton Oval",
      "address": "Brockton Oval",
      "intersection": "",
      "region": "downtown",
      "hours": "Dawn to Dusk",
      "phone": "",
      "lat": 49.29962596371685,
      "lng": -123.1260230030714,
      "notes": "Wheelchair accessible"
    },
    {
      "id": "washroom-van-99",
      "type": "washroom",
      "name": "Stanley Park \u2014 Pavilion",
      "address": "Pavilion",
      "intersection": "",
      "region": "downtown",
      "hours": "Dawn to Dusk",
      "phone": "",
      "lat": 49.29954903031622,
      "lng": -123.13405101599092,
      "notes": "Wheelchair accessible",
      "nearby_routes": [
        "019"
      ]
    },
    {
      "id": "washroom-van-101",
      "type": "washroom",
      "name": "s??q?lxen?m ts'exwts'a?xwi7 (Rainbow) \u2014 872 Richards St",
      "address": "872 Richards St, Downtown",
      "intersection": "Downtown",
      "region": "downtown",
      "hours": "Dawn to Dusk",
      "phone": "",
      "lat": 49.278985860864495,
      "lng": -123.11893195123973,
      "notes": "Wheelchair accessible",
      "nearby_routes": [
        "004",
        "006",
        "007",
        "010",
        "014",
        "016",
        "017",
        "020",
        "050",
        "240",
        "241",
        "246",
        "247",
        "250",
        "253",
        "254",
        "257",
        "Canada Line",
        "N10",
        "N15",
        "N17",
        "N19",
        "N20",
        "N22",
        "N24",
        "N35",
        "N8",
        "N9"
      ]
    },
    {
      "id": "washroom-van-104",
      "type": "washroom",
      "name": " \u2014 Victory Square",
      "address": "Victory Square, Downtown",
      "intersection": "Downtown",
      "region": "downtown",
      "hours": "6:00am - Midnight",
      "phone": "",
      "lat": 49.28258498871338,
      "lng": -123.11011655435036,
      "notes": "",
      "nearby_routes": [
        "003",
        "004",
        "005",
        "006",
        "007",
        "008",
        "010",
        "014",
        "016",
        "017",
        "019",
        "020",
        "022",
        "023",
        "044",
        "050",
        "209",
        "210",
        "211",
        "214",
        "240",
        "241",
        "246",
        "247",
        "250",
        "253",
        "254",
        "257",
        "Canada Line",
        "Expo Line",
        "N10",
        "N15",
        "N17",
        "N19",
        "N20",
        "N22",
        "N24",
        "N35",
        "N8",
        "N9",
        "R5",
        "SeaBus",
        "WCE"
      ]
    },
    {
      "id": "washroom-van-105",
      "type": "washroom",
      "name": " \u2014 Main St and Terminal Ave",
      "address": "Main St and Terminal Ave, Strathcona",
      "intersection": "Strathcona",
      "region": "downtown",
      "hours": "6am - 10pm",
      "phone": "",
      "lat": 49.27313308782912,
      "lng": -123.09976255831502,
      "notes": "Wheelchair accessible",
      "nearby_routes": [
        "003",
        "008",
        "019",
        "022",
        "023",
        "084",
        "Expo Line",
        "N19",
        "N8"
      ]
    },
    {
      "id": "washroom-van-106",
      "type": "washroom",
      "name": " \u2014 Robson St and Richards St",
      "address": "Robson St and Richards St, Downtown",
      "intersection": "Downtown",
      "region": "downtown",
      "hours": "24hrs - 24hrs",
      "phone": "",
      "lat": 49.28031868986809,
      "lng": -123.11803855424998,
      "notes": "",
      "nearby_routes": [
        "002",
        "004",
        "005",
        "006",
        "007",
        "010",
        "014",
        "016",
        "017",
        "020",
        "044",
        "050",
        "240",
        "241",
        "246",
        "247",
        "250",
        "253",
        "254",
        "257",
        "Canada Line",
        "Expo Line",
        "N10",
        "N15",
        "N17",
        "N19",
        "N20",
        "N22",
        "N24",
        "N35",
        "N8",
        "N9"
      ]
    },
    {
      "id": "washroom-van-113",
      "type": "washroom",
      "name": "MacLean Park \u2014 North west corner, fieldhouse",
      "address": "North west corner, fieldhouse, Strathcona",
      "intersection": "Strathcona",
      "region": "downtown",
      "hours": "Dawn to Dusk",
      "phone": "",
      "lat": 49.27900702156872,
      "lng": -123.08936604005854,
      "notes": "",
      "nearby_routes": [
        "004",
        "007",
        "014",
        "016",
        "020",
        "022",
        "209",
        "210",
        "211",
        "214",
        "N20",
        "N35"
      ]
    },
    {
      "id": "washroom-van-124",
      "type": "washroom",
      "name": "Gathering Place \u2014 609 Helmcken St",
      "address": "609 Helmcken St, Downtown",
      "intersection": "Downtown",
      "region": "downtown",
      "hours": "as per CC operating hours",
      "phone": "",
      "lat": 49.27798999137717,
      "lng": -123.12348216441738,
      "notes": "",
      "nearby_routes": [
        "002",
        "004",
        "006",
        "007",
        "010",
        "014",
        "016",
        "017",
        "020",
        "023",
        "044",
        "050",
        "Canada Line",
        "N10",
        "N15",
        "N17",
        "N22",
        "N9"
      ]
    },
    {
      "id": "washroom-van-133",
      "type": "washroom",
      "name": "Stanley Park \u2014 Pitch & Putt Golf Course",
      "address": "Pitch & Putt Golf Course",
      "intersection": "",
      "region": "downtown",
      "hours": "Dawn to Dusk",
      "phone": "",
      "lat": 49.29303503648441,
      "lng": -123.14659902498154,
      "notes": "Wheelchair accessible"
    },
    {
      "id": "washroom-van-134",
      "type": "washroom",
      "name": "Stanley Park \u2014 SP Brewing",
      "address": "SP Brewing",
      "intersection": "",
      "region": "downtown",
      "hours": "Dawn to Dusk",
      "phone": "",
      "lat": 49.292293020819386,
      "lng": -123.14658004093586,
      "notes": "Wheelchair accessible"
    },
    {
      "id": "washroom-van-135",
      "type": "washroom",
      "name": "Stanley Park \u2014 Lumberman's Arch",
      "address": "Lumberman's Arch",
      "intersection": "",
      "region": "downtown",
      "hours": "Dawn to Dusk",
      "phone": "",
      "lat": 49.302925983765704,
      "lng": -123.13070797861171,
      "notes": "Wheelchair accessible",
      "nearby_routes": [
        "019"
      ]
    },
    {
      "id": "washroom-van-136",
      "type": "washroom",
      "name": "Stanley Park \u2014 Aquarium plaza",
      "address": "Aquarium plaza",
      "intersection": "",
      "region": "downtown",
      "hours": "Dawn to Dusk",
      "phone": "",
      "lat": 49.29986799505929,
      "lng": -123.13070000527493,
      "notes": "Wheelchair accessible",
      "nearby_routes": [
        "019"
      ]
    },
    {
      "id": "washroom-van-137",
      "type": "washroom",
      "name": "Stanley Park \u2014 Chilco - Lost Lagoon",
      "address": "Chilco - Lost Lagoon",
      "intersection": "",
      "region": "downtown",
      "hours": "Dawn to Dusk",
      "phone": "",
      "lat": 49.29392203706443,
      "lng": -123.13859102966137,
      "notes": "Wheelchair accessible",
      "nearby_routes": [
        "005",
        "019",
        "044",
        "240",
        "241",
        "246",
        "247",
        "250",
        "253",
        "254",
        "257",
        "N24"
      ]
    },
    {
      "id": "washroom-van-138",
      "type": "washroom",
      "name": "Sunset Beach \u2014 Vancouver Aquatic Center",
      "address": "Vancouver Aquatic Center, West End",
      "intersection": "West End",
      "region": "downtown",
      "hours": "Dawn to dusk",
      "phone": "",
      "lat": 49.27677906039137,
      "lng": -123.13542456694313,
      "notes": "",
      "nearby_routes": [
        "002",
        "006",
        "023",
        "044",
        "N22"
      ]
    },
    {
      "id": "washroom-van-140",
      "type": "washroom",
      "name": "Spanish Banks - Extension \u2014 West Parking Lot",
      "address": "West Parking Lot",
      "intersection": "",
      "region": "downtown",
      "hours": "Dawn to dusk",
      "phone": "",
      "lat": 49.2785519050673,
      "lng": -123.23169795755233,
      "notes": ""
    },
    {
      "id": "washroom-van-142",
      "type": "washroom",
      "name": "CRAB Park at Portside \u2014 101 E Waterfront Rd",
      "address": "101 E Waterfront Rd, Downtown",
      "intersection": "Downtown",
      "region": "downtown",
      "hours": "24 hrs",
      "phone": "",
      "lat": 49.284587647061095,
      "lng": -123.10183295751148,
      "notes": "Wheelchair accessible",
      "nearby_routes": [
        "003",
        "004",
        "007",
        "008",
        "014",
        "016",
        "019",
        "020",
        "022",
        "050",
        "209",
        "210",
        "211",
        "214",
        "N19",
        "N20",
        "N35",
        "N8",
        "R5"
      ]
    },
    {
      "id": "washroom-van-144",
      "type": "washroom",
      "name": " \u2014 Bute St and Davie St",
      "address": "Bute St and Davie St, West End",
      "intersection": "West End",
      "region": "downtown",
      "hours": "24hrs - 24hrs",
      "phone": "",
      "lat": 49.28184849173398,
      "lng": -123.1331255518689,
      "notes": "",
      "nearby_routes": [
        "002",
        "006",
        "023",
        "044",
        "N22"
      ]
    },
    {
      "id": "washroom-van-145",
      "type": "washroom",
      "name": " \u2014 Nelson St and Howe St",
      "address": "Nelson St and Howe St, Downtown",
      "intersection": "Downtown",
      "region": "downtown",
      "hours": "24hrs - 24hrs",
      "phone": "",
      "lat": 49.279690790811784,
      "lng": -123.12350055300317,
      "notes": "",
      "nearby_routes": [
        "002",
        "004",
        "005",
        "006",
        "007",
        "010",
        "014",
        "016",
        "017",
        "020",
        "044",
        "050",
        "240",
        "241",
        "246",
        "247",
        "250",
        "253",
        "254",
        "257",
        "Canada Line",
        "N10",
        "N15",
        "N17",
        "N19",
        "N20",
        "N22",
        "N24",
        "N35",
        "N8",
        "N9"
      ]
    },
    {
      "id": "washroom-van-146",
      "type": "washroom",
      "name": " \u2014 Vancouver Art Gallery",
      "address": "Vancouver Art Gallery, Downtown",
      "intersection": "Downtown",
      "region": "downtown",
      "hours": "6am - 10pm",
      "phone": "",
      "lat": 49.28295538960404,
      "lng": -123.11984855327826,
      "notes": "Wheelchair accessible",
      "nearby_routes": [
        "002",
        "004",
        "005",
        "007",
        "010",
        "014",
        "016",
        "017",
        "019",
        "020",
        "022",
        "044",
        "050",
        "209",
        "210",
        "211",
        "214",
        "240",
        "241",
        "246",
        "247",
        "250",
        "253",
        "254",
        "257",
        "Canada Line",
        "Expo Line",
        "N10",
        "N15",
        "N17",
        "N19",
        "N20",
        "N22",
        "N24",
        "N35",
        "N8",
        "N9",
        "R5"
      ]
    },
    {
      "id": "meal-van-5",
      "type": "meal",
      "name": "Christ Church Cathedral - Maundy Cafe",
      "address": "690 Burrard St, Vancouver, BC",
      "intersection": "Downtown",
      "region": "downtown",
      "hours": "Mon, Thurs, Fri from 11:30am-12:30pm",
      "phone": "",
      "lat": 49.284484,
      "lng": -123.120359,
      "notes": "Free. Wheelchair accessible; Takeout available",
      "nearby_routes": [
        "002",
        "004",
        "005",
        "007",
        "010",
        "014",
        "016",
        "017",
        "019",
        "020",
        "022",
        "044",
        "050",
        "209",
        "210",
        "211",
        "214",
        "240",
        "241",
        "246",
        "247",
        "250",
        "253",
        "254",
        "257",
        "Canada Line",
        "Expo Line",
        "N10",
        "N15",
        "N17",
        "N19",
        "N20",
        "N22",
        "N24",
        "N35",
        "N8",
        "N9",
        "R5"
      ]
    },
    {
      "id": "meal-van-7",
      "type": "meal",
      "name": "Evelyne Saller Centre - Low Cost Meals",
      "address": "404 Alexander St, Vancouver, BC",
      "intersection": "Strathcona",
      "region": "downtown",
      "hours": "Breakfast 10am-12pm, Lunch 11:30am-3pm, Dinner 3-5:50pm",
      "phone": "",
      "lat": 49.283977,
      "lng": -123.094983,
      "notes": "$2.00. Wheelchair accessible",
      "nearby_routes": [
        "003",
        "004",
        "007",
        "008",
        "014",
        "016",
        "020",
        "022",
        "209",
        "210",
        "211",
        "214",
        "N20",
        "N35",
        "N8",
        "R5"
      ]
    },
    {
      "id": "meal-van-9",
      "type": "meal",
      "name": "Sheway - Lunches",
      "address": "533 E Hastings St, Vancouver, BC",
      "intersection": "Strathcona",
      "region": "downtown",
      "hours": "Mon-Fri 11:30am-1:30pm",
      "phone": "",
      "lat": 49.281501,
      "lng": -123.092398,
      "notes": "Free. Wheelchair accessible",
      "nearby_routes": [
        "004",
        "007",
        "014",
        "016",
        "020",
        "022",
        "209",
        "210",
        "211",
        "214",
        "N20",
        "N35",
        "R5"
      ]
    },
    {
      "id": "meal-van-10",
      "type": "meal",
      "name": "Nourishing Neighbours",
      "address": "",
      "intersection": "",
      "region": "downtown",
      "hours": "Free community dinner on the 2nd Monday of every month at 6PM in our Salons",
      "phone": "",
      "lat": null,
      "lng": null,
      "notes": "Free. Wheelchair accessible"
    },
    {
      "id": "meal-van-14",
      "type": "meal",
      "name": "DUDES Club",
      "address": "606 Powell St, Vancouver, BC",
      "intersection": "Strathcona",
      "region": "downtown",
      "hours": "Th at 4pm",
      "phone": "",
      "lat": 49.283002,
      "lng": -123.091232,
      "notes": "Free. Wheelchair accessible",
      "nearby_routes": [
        "004",
        "007",
        "014",
        "016",
        "020",
        "209",
        "210",
        "211",
        "214",
        "N20",
        "N35"
      ]
    },
    {
      "id": "meal-van-15",
      "type": "meal",
      "name": "Vancouver Second Mile Society - Meal Program",
      "address": "509 E Hastings St, Vancouver, BC",
      "intersection": "Strathcona",
      "region": "downtown",
      "hours": "Call for hours",
      "phone": "(604) 254-2194",
      "lat": 49.281283,
      "lng": -123.092787,
      "notes": "$4.00. Wheelchair accessible; Takeout available",
      "nearby_routes": [
        "004",
        "007",
        "014",
        "016",
        "020",
        "022",
        "209",
        "210",
        "211",
        "214",
        "N20",
        "N35",
        "R5"
      ]
    },
    {
      "id": "meal-van-20",
      "type": "meal",
      "name": "First United \u2013 Community Meals",
      "address": "",
      "intersection": "",
      "region": "downtown",
      "hours": "Northeast corner of Hastings St and Gore St, Vancouver\r\nMonday \u2013 Friday, service begins around noon (not served on income assistance days or statutory holidays)\r\nFree, hearty lunch served weekdays via",
      "phone": "",
      "lat": null,
      "lng": null,
      "notes": "Free. Wheelchair accessible; Takeout available"
    },
    {
      "id": "meal-van-27",
      "type": "meal",
      "name": "Directions Youth Services - Meal and Snacks",
      "address": "1138 Burrard St, Vancouver, BC",
      "intersection": "Downtown",
      "region": "downtown",
      "hours": "Open for snacks 24/7; Meal daily from 8-9 pm",
      "phone": "(604) 633-1472",
      "lat": 49.279589,
      "lng": -123.12829,
      "notes": "Free. Takeout available",
      "nearby_routes": [
        "002",
        "004",
        "006",
        "007",
        "010",
        "014",
        "016",
        "023",
        "044",
        "050",
        "N10",
        "N17",
        "N22",
        "N9"
      ]
    },
    {
      "id": "meal-van-37",
      "type": "meal",
      "name": "Mount Pleasant N'hood House",
      "address": "",
      "intersection": "",
      "region": "downtown",
      "hours": "Come and share a meal with your neighbours at our Community Lunch every second Friday from 11:45AM-1PM",
      "phone": "(604) 879-8208",
      "lat": null,
      "lng": null,
      "notes": "Low cost. Wheelchair accessible"
    },
    {
      "id": "meal-van-39",
      "type": "meal",
      "name": "The Dugout - Hot Breakfast",
      "address": "57 E Hastings St, Vancouver, BC",
      "intersection": "Downtown",
      "region": "downtown",
      "hours": "Daily hot meal at 10:30am",
      "phone": "",
      "lat": 49.281478,
      "lng": -123.103155,
      "notes": "Free. Takeout available",
      "nearby_routes": [
        "003",
        "004",
        "007",
        "008",
        "014",
        "016",
        "019",
        "020",
        "022",
        "023",
        "050",
        "209",
        "210",
        "211",
        "214",
        "Expo Line",
        "N19",
        "N20",
        "N35",
        "N8",
        "R5"
      ]
    },
    {
      "id": "meal-van-40",
      "type": "meal",
      "name": "Gathering Place Community Centre - Meals",
      "address": "609 Helmcken St, Vancouver, BC",
      "intersection": "Downtown",
      "region": "downtown",
      "hours": "Meals every day of the week",
      "phone": "",
      "lat": 49.277708,
      "lng": -123.123799,
      "notes": "Low cost. Wheelchair accessible; Takeout available",
      "nearby_routes": [
        "002",
        "004",
        "006",
        "007",
        "010",
        "014",
        "016",
        "017",
        "023",
        "044",
        "050",
        "Canada Line",
        "N10",
        "N15",
        "N17",
        "N22",
        "N9"
      ]
    },
    {
      "id": "meal-van-42",
      "type": "meal",
      "name": "DTES Neighbourhood House - Meal Program",
      "address": "573 E Hastings St, Vancouver, BC",
      "intersection": "Strathcona",
      "region": "downtown",
      "hours": "Community drop-in: Oatmeal on Mon and Wed at 10am-12pm and hot lunch on Wed at 12:30pm-2pm (open to everyone)",
      "phone": "",
      "lat": 49.281262,
      "lng": -123.091816,
      "notes": "Free. Wheelchair accessible; Takeout available",
      "nearby_routes": [
        "004",
        "007",
        "014",
        "016",
        "020",
        "022",
        "209",
        "210",
        "211",
        "214",
        "N20",
        "N35",
        "R5"
      ]
    },
    {
      "id": "meal-van-43",
      "type": "meal",
      "name": "The Door is Open - Meal Program",
      "address": "255 Dunlevy Ave, Vancouver, BC",
      "intersection": "Strathcona",
      "region": "downtown",
      "hours": "Anyone on Mon, Tues, Thurs, Fri, Sat at 11am and Sun at 11:30am",
      "phone": "",
      "lat": 49.282407,
      "lng": -123.095626,
      "notes": "Free. ",
      "nearby_routes": [
        "003",
        "004",
        "007",
        "008",
        "014",
        "016",
        "019",
        "020",
        "022",
        "209",
        "210",
        "211",
        "214",
        "N19",
        "N20",
        "N35",
        "N8",
        "R5"
      ]
    },
    {
      "id": "meal-van-44",
      "type": "meal",
      "name": "Salvation Army - Harbour Light, Meal Program",
      "address": "119 E Cordova St, Vancouver, BC",
      "intersection": "Downtown",
      "region": "downtown",
      "hours": "Mon-Fri at 11am; Sat 4pm",
      "phone": "",
      "lat": 49.282569,
      "lng": -123.100962,
      "notes": "Free. Wheelchair accessible",
      "nearby_routes": [
        "003",
        "004",
        "007",
        "008",
        "014",
        "016",
        "019",
        "020",
        "022",
        "023",
        "050",
        "209",
        "210",
        "211",
        "214",
        "N19",
        "N20",
        "N35",
        "N8",
        "R5"
      ]
    },
    {
      "id": "meal-van-45",
      "type": "meal",
      "name": "Lookout Society's Powell St. Getaway - Snacks",
      "address": "450 E Hastings St, Vancouver, BC",
      "intersection": "Strathcona",
      "region": "downtown",
      "hours": "Daily at 10:30am, 1pm, and 4pm",
      "phone": "",
      "lat": 49.280912,
      "lng": -123.094276,
      "notes": "Free. Wheelchair accessible; Takeout available",
      "nearby_routes": [
        "003",
        "004",
        "007",
        "008",
        "014",
        "016",
        "019",
        "020",
        "022",
        "209",
        "210",
        "211",
        "214",
        "N19",
        "N20",
        "N35",
        "N8",
        "R5"
      ]
    },
    {
      "id": "meal-van-46",
      "type": "meal",
      "name": "DTES Women's Centre - Drop In - Takeout Meals",
      "address": "302 Columbia St, Vancouver, BC",
      "intersection": "Downtown",
      "region": "downtown",
      "hours": "Daily (except Wed) 10-11am, 12-2pm",
      "phone": "",
      "lat": 49.281867,
      "lng": -123.102196,
      "notes": "Free. Wheelchair accessible; Takeout available",
      "nearby_routes": [
        "003",
        "004",
        "007",
        "008",
        "014",
        "016",
        "019",
        "020",
        "022",
        "023",
        "050",
        "209",
        "210",
        "211",
        "214",
        "N19",
        "N20",
        "N35",
        "N8",
        "R5"
      ]
    },
    {
      "id": "meal-van-48",
      "type": "meal",
      "name": "Covenant House - Meal Program",
      "address": "1302 Seymour St, Vancouver, BC",
      "intersection": "Downtown",
      "region": "downtown",
      "hours": "Hot breakfast M-F 9am-12pm; Hot meal or pizza M-F 3:30-5pm",
      "phone": "",
      "lat": 49.275159,
      "lng": -123.126681,
      "notes": "Free. Wheelchair accessible",
      "nearby_routes": [
        "002",
        "004",
        "006",
        "007",
        "010",
        "014",
        "016",
        "023",
        "044",
        "050",
        "Canada Line",
        "N10",
        "N17",
        "N22",
        "N9"
      ]
    },
    {
      "id": "meal-van-53",
      "type": "meal",
      "name": "Gospel Mission Society - Food Program",
      "address": "255 Dunlevy Ave, Vancouver, BC",
      "intersection": "Strathcona",
      "region": "downtown",
      "hours": "Serving sandwiches or hot food Wed 7-8pm",
      "phone": "",
      "lat": 49.282399,
      "lng": -123.09564,
      "notes": "Free. Wheelchair accessible; Takeout available",
      "nearby_routes": [
        "003",
        "004",
        "007",
        "008",
        "014",
        "016",
        "019",
        "020",
        "022",
        "209",
        "210",
        "211",
        "214",
        "N19",
        "N20",
        "N35",
        "N8",
        "R5"
      ]
    },
    {
      "id": "meal-van-58",
      "type": "meal",
      "name": "Three Links Foundation - Sunday Free Breakfast",
      "address": "",
      "intersection": "",
      "region": "downtown",
      "hours": "Every Sunday, 9:30am to 11:30am",
      "phone": "",
      "lat": 49.26474,
      "lng": -123.136943,
      "notes": "Free. Wheelchair accessible; Takeout available",
      "nearby_routes": [
        "004",
        "007",
        "009",
        "010",
        "014",
        "016",
        "050",
        "084",
        "099",
        "N10",
        "N17",
        "N9"
      ]
    },
    {
      "id": "meal-van-60",
      "type": "meal",
      "name": "Food on the Corner",
      "address": "222 Main St, Vancouver, BC",
      "intersection": "Strathcona",
      "region": "downtown",
      "hours": "Sat 11am",
      "phone": "",
      "lat": 49.282721,
      "lng": -123.098575,
      "notes": "Free. ",
      "nearby_routes": [
        "003",
        "004",
        "007",
        "008",
        "014",
        "016",
        "019",
        "020",
        "022",
        "050",
        "209",
        "210",
        "211",
        "214",
        "N19",
        "N20",
        "N35",
        "N8",
        "R5"
      ]
    },
    {
      "id": "meal-van-62",
      "type": "meal",
      "name": "Guru Nanak's Free Kitchen",
      "address": "401 Main Street",
      "intersection": "Downtown",
      "region": "downtown",
      "hours": "Hot meal served Saturday 1pm, Sunday 12pm outside of Carnegie Centre",
      "phone": "",
      "lat": 49.28106,
      "lng": -123.100121,
      "notes": "Free. ",
      "nearby_routes": [
        "003",
        "004",
        "007",
        "008",
        "014",
        "016",
        "019",
        "020",
        "022",
        "023",
        "050",
        "209",
        "210",
        "211",
        "214",
        "N19",
        "N20",
        "N35",
        "N8",
        "R5"
      ]
    },
    {
      "id": "meal-van-66",
      "type": "meal",
      "name": "Union Gospel Mission - Meal Program",
      "address": "601 E Hastings St, Vancouver, BC",
      "intersection": "Strathcona",
      "region": "downtown",
      "hours": "Lunch every day at 11am (tickets at 10:45am)",
      "phone": "",
      "lat": 49.281483,
      "lng": -123.091066,
      "notes": "Free. Wheelchair accessible; Takeout available",
      "nearby_routes": [
        "004",
        "007",
        "014",
        "016",
        "020",
        "022",
        "209",
        "210",
        "211",
        "214",
        "N20",
        "N35"
      ]
    },
    {
      "id": "meal-van-69",
      "type": "meal",
      "name": "YWCA Crabtree Corner - Meal Programs",
      "address": "533 E Hastings St, Vancouver, BC",
      "intersection": "Strathcona",
      "region": "downtown",
      "hours": "Breakfast: Mon-Fri, 9-10am",
      "phone": "",
      "lat": 49.281501,
      "lng": -123.092398,
      "notes": "Free. Wheelchair accessible; Takeout available",
      "nearby_routes": [
        "004",
        "007",
        "014",
        "016",
        "020",
        "022",
        "209",
        "210",
        "211",
        "214",
        "N20",
        "N35",
        "R5"
      ]
    },
    {
      "id": "meal-van-71",
      "type": "meal",
      "name": "Carnegie Community Centre - Cafeteria",
      "address": "401 Main St, Vancouver, BC",
      "intersection": "Downtown",
      "region": "downtown",
      "hours": "Meals served daily",
      "phone": "",
      "lat": 49.28106,
      "lng": -123.100121,
      "notes": "Low cost. Wheelchair accessible",
      "nearby_routes": [
        "003",
        "004",
        "007",
        "008",
        "014",
        "016",
        "019",
        "020",
        "022",
        "023",
        "050",
        "209",
        "210",
        "211",
        "214",
        "N19",
        "N20",
        "N35",
        "N8",
        "R5"
      ]
    },
    {
      "id": "meal-van-72",
      "type": "meal",
      "name": "Muslim Care Centre - Meal Program",
      "address": "140 E Hastings St, Vancouver, BC",
      "intersection": "Downtown",
      "region": "downtown",
      "hours": "Mon-Fri at 5:30pm, Sat at 1pm, Sun at Noon",
      "phone": "",
      "lat": 49.281319,
      "lng": -123.101134,
      "notes": "Free. Wheelchair accessible; Takeout available",
      "nearby_routes": [
        "003",
        "004",
        "007",
        "008",
        "014",
        "016",
        "019",
        "020",
        "022",
        "023",
        "050",
        "209",
        "210",
        "211",
        "214",
        "N19",
        "N20",
        "N35",
        "N8",
        "R5"
      ]
    },
    {
      "id": "safe-van-1",
      "type": "safe_injection",
      "name": "Insite",
      "address": "139 E Hastings St",
      "intersection": "Downtown",
      "region": "downtown",
      "hours": "9am\u20132am daily",
      "phone": "604-687-7438",
      "lat": 49.281,
      "lng": -123.087,
      "notes": "Supervised consumption. Drug checking available at some sites.",
      "nearby_routes": [
        "004",
        "007",
        "014",
        "016",
        "020",
        "022",
        "209",
        "210",
        "211",
        "214",
        "N20",
        "N35"
      ]
    },
    {
      "id": "safe-van-2",
      "type": "safe_injection",
      "name": "Molson Overdose Prevention Site",
      "address": "166 E Hastings St",
      "intersection": "Downtown",
      "region": "downtown",
      "hours": "7am\u201310:30pm daily",
      "phone": "604-687-7438",
      "lat": 49.281,
      "lng": -123.086,
      "notes": "Supervised consumption. Drug checking available at some sites.",
      "nearby_routes": [
        "004",
        "007",
        "014",
        "016",
        "020",
        "209",
        "210",
        "211",
        "214",
        "N20",
        "N35"
      ]
    },
    {
      "id": "safe-van-3",
      "type": "safe_injection",
      "name": "Thomas Donaghy OPS",
      "address": "380 E Cordova St",
      "intersection": "Downtown",
      "region": "downtown",
      "hours": "Varies",
      "phone": "604-687-7438",
      "lat": 49.282,
      "lng": -123.098,
      "notes": "Supervised consumption. Drug checking available at some sites.",
      "nearby_routes": [
        "003",
        "004",
        "007",
        "008",
        "014",
        "016",
        "019",
        "020",
        "022",
        "023",
        "050",
        "209",
        "210",
        "211",
        "214",
        "N19",
        "N20",
        "N35",
        "N8",
        "R5"
      ]
    },
    {
      "id": "safe-van-4",
      "type": "safe_injection",
      "name": "Powell Street Getaway",
      "address": "528 Powell St",
      "intersection": "Downtown",
      "region": "downtown",
      "hours": "Varies",
      "phone": "604-687-7438",
      "lat": 49.283,
      "lng": -123.095,
      "notes": "Supervised consumption. Drug checking available at some sites.",
      "nearby_routes": [
        "003",
        "004",
        "007",
        "008",
        "014",
        "016",
        "019",
        "020",
        "022",
        "209",
        "210",
        "211",
        "214",
        "N19",
        "N20",
        "N35",
        "N8",
        "R5"
      ]
    }
  ]
}