{
  "meta": {
    "city": "vancouver",
    "updated": "2026-02-25",
    "regions": [
      {
        "id": "downtown",
        "name": "Downtown"
      },
      {
        "id": "east-van",
        "name": "East Van"
      },
      {
        "id": "fairview",
        "name": "Fairview"
      },
      {
        "id": "kitsilano",
        "name": "Kitsilano"
      },
      {
        "id": "mount-pleasant",
        "name": "Mount Pleasant"
      },
      {
        "id": "south-van",
        "name": "South Van"
      },
      {
        "id": "west-point-grey",
        "name": "West Point Grey"
      }
    ]
  },
  "amenities": [
    {
      "id": "shelter-van-1",
      "type": "shelter",
      "name": "Tenth Avenue Church",
      "address": "11 W 10th Ave (10th & Ontario)",
      "intersection": "Mount Pleasant",
      "region": "mount-pleasant",
      "hours": "Call for hours",
      "phone": "604-876-2181",
      "lat": 49.262338305195684,
      "lng": -123.10586046207774,
      "notes": "Meals available",
      "category": "Adults (all genders)",
      "nearby_routes": [
        "003",
        "008",
        "009",
        "019",
        "099",
        "N19",
        "N8",
        "N9"
      ]
    },
    {
      "id": "shelter-van-2",
      "type": "shelter",
      "name": "Belkin House",
      "address": "555 Homer St",
      "intersection": "Downtown",
      "region": "downtown",
      "hours": "Call for hours",
      "phone": "604-681-3405",
      "lat": 49.28245838143064,
      "lng": -123.11293968534518,
      "notes": "",
      "category": "Adults (all genders)",
      "nearby_routes": [
        "003",
        "004",
        "005",
        "006",
        "007",
        "008",
        "010",
        "014",
        "016",
        "017",
        "019",
        "020",
        "022",
        "044",
        "050",
        "209",
        "210",
        "211",
        "214",
        "240",
        "241",
        "246",
        "247",
        "250",
        "253",
        "254",
        "257",
        "Canada Line",
        "Expo Line",
        "N10",
        "N15",
        "N17",
        "N19",
        "N20",
        "N22",
        "N24",
        "N35",
        "N8",
        "N9",
        "R5",
        "SeaBus",
        "WCE"
      ]
    },
    {
      "id": "shelter-van-3",
      "type": "shelter",
      "name": "Catholic Charities Men's Hostel",
      "address": "828 Cambie St",
      "intersection": "Downtown",
      "region": "downtown",
      "hours": "Call for hours",
      "phone": "604-443-3292",
      "lat": 49.27769337237721,
      "lng": -123.1147756731615,
      "notes": "",
      "category": "Men",
      "nearby_routes": [
        "004",
        "005",
        "006",
        "007",
        "010",
        "014",
        "016",
        "017",
        "020",
        "023",
        "050",
        "240",
        "241",
        "246",
        "247",
        "250",
        "253",
        "254",
        "257",
        "Expo Line",
        "N10",
        "N15",
        "N17",
        "N24",
        "N9"
      ]
    },
    {
      "id": "shelter-van-4",
      "type": "shelter",
      "name": "Union Gospel Mission",
      "address": "601 E Hastings St (Hastings & Princess)",
      "intersection": "Strathcona",
      "region": "downtown",
      "hours": "Call for hours",
      "phone": "604-253-3323",
      "lat": 49.281871703205425,
      "lng": -123.09098604679792,
      "notes": "Meals available",
      "category": "Men",
      "nearby_routes": [
        "004",
        "007",
        "014",
        "016",
        "020",
        "209",
        "210",
        "211",
        "214",
        "N20",
        "N35"
      ]
    },
    {
      "id": "shelter-van-5",
      "type": "shelter",
      "name": "Vineyard Church",
      "address": "1801 E 1st Ave",
      "intersection": "Grandview-Woodland",
      "region": "east-van",
      "hours": "Call for hours",
      "phone": "604-255-4463",
      "lat": 49.269335660054985,
      "lng": -123.07055190144827,
      "notes": "Meals available",
      "category": "Adults (all genders)",
      "nearby_routes": [
        "020",
        "N20"
      ]
    },
    {
      "id": "shelter-van-6",
      "type": "shelter",
      "name": "Triage",
      "address": "620 Powell St",
      "intersection": "Strathcona",
      "region": "downtown",
      "hours": "Call for hours",
      "phone": "604-254-3700",
      "lat": 49.28325701333048,
      "lng": -123.08914065335308,
      "notes": "",
      "category": "Adults (all genders)",
      "nearby_routes": [
        "004",
        "007",
        "014",
        "016",
        "020",
        "209",
        "210",
        "211",
        "214",
        "N20",
        "N35"
      ]
    },
    {
      "id": "shelter-van-7",
      "type": "shelter",
      "name": "Anchor of Hope",
      "address": "616 Powell St (Powell & Gore)",
      "intersection": "Downtown",
      "region": "downtown",
      "hours": "Call for hours",
      "phone": "604-646-6899",
      "lat": 49.282056211986955,
      "lng": -123.10109474719326,
      "notes": "Meals available",
      "category": "Adults (all genders)",
      "nearby_routes": [
        "003",
        "004",
        "007",
        "008",
        "014",
        "016",
        "019",
        "020",
        "022",
        "023",
        "050",
        "209",
        "210",
        "211",
        "214",
        "N19",
        "N20",
        "N35",
        "N8",
        "R5"
      ]
    },
    {
      "id": "shelter-van-8",
      "type": "shelter",
      "name": "The Haven",
      "address": "616 Powell St",
      "intersection": "Downtown",
      "region": "downtown",
      "hours": "Call for hours",
      "phone": "604-646-6800",
      "lat": 49.282056211986955,
      "lng": -123.10109474719326,
      "notes": "",
      "category": "Men",
      "nearby_routes": [
        "003",
        "004",
        "007",
        "008",
        "014",
        "016",
        "019",
        "020",
        "022",
        "023",
        "050",
        "209",
        "210",
        "211",
        "214",
        "N19",
        "N20",
        "N35",
        "N8",
        "R5"
      ]
    },
    {
      "id": "shelter-van-9",
      "type": "shelter",
      "name": "Yukon Shelter",
      "address": "1300 Yukon St",
      "intersection": "Mount Pleasant",
      "region": "mount-pleasant",
      "hours": "Call for hours",
      "phone": "604-264-1680",
      "lat": 49.26689088504469,
      "lng": -123.11236726193974,
      "notes": "Pets allowed",
      "category": "Adults (all genders)",
      "nearby_routes": [
        "009",
        "015",
        "017",
        "050",
        "084",
        "099",
        "Canada Line",
        "N15",
        "N9"
      ]
    },
    {
      "id": "shelter-van-10",
      "type": "shelter",
      "name": "Aboriginal Shelter",
      "address": "385 E 2nd Ave (2nd & Quebec)",
      "intersection": "Strathcona",
      "region": "downtown",
      "hours": "Call for hours",
      "phone": "604-347-0299",
      "lat": 49.27157435253819,
      "lng": -123.09934686157887,
      "notes": "Meals available; Pets allowed; Carts allowed",
      "category": "Adults (all genders)",
      "nearby_routes": [
        "003",
        "008",
        "019",
        "022",
        "023",
        "084",
        "Expo Line",
        "N19",
        "N8"
      ]
    },
    {
      "id": "shelter-van-11",
      "type": "shelter",
      "name": "First Baptist Church",
      "address": "969 Burrard St",
      "intersection": "West End",
      "region": "downtown",
      "hours": "Call for hours",
      "phone": "604-683-8441",
      "lat": 49.281851154764425,
      "lng": -123.12645824751823,
      "notes": "Meals available",
      "category": "Adults (all genders)",
      "nearby_routes": [
        "002",
        "004",
        "005",
        "006",
        "007",
        "010",
        "014",
        "016",
        "044",
        "050",
        "240",
        "241",
        "246",
        "247",
        "250",
        "253",
        "254",
        "257",
        "N10",
        "N17",
        "N22",
        "N24",
        "N9"
      ]
    },
    {
      "id": "shelter-van-12",
      "type": "shelter",
      "name": "Dusk to Dawn-Directions Youth Centre",
      "address": "1138 Richards St",
      "intersection": "Downtown",
      "region": "downtown",
      "hours": "Call for hours",
      "phone": "604-633-1472",
      "lat": 49.27956687773119,
      "lng": -123.12780362309378,
      "notes": "Meals available",
      "category": "Youth (all genders)",
      "nearby_routes": [
        "002",
        "004",
        "006",
        "007",
        "010",
        "014",
        "016",
        "044",
        "050",
        "N10",
        "N17",
        "N22",
        "N9"
      ]
    },
    {
      "id": "shelter-van-13",
      "type": "shelter",
      "name": "First United Church",
      "address": "320 E Hastings St (Hastings & Gore)",
      "intersection": "Strathcona",
      "region": "downtown",
      "hours": "Call for hours",
      "phone": "604-681-8365",
      "lat": 49.28098552764485,
      "lng": -123.09704179173589,
      "notes": "Meals available; Pets allowed; Carts allowed",
      "category": "Adults (all genders)",
      "nearby_routes": [
        "003",
        "004",
        "007",
        "008",
        "014",
        "016",
        "019",
        "020",
        "022",
        "023",
        "050",
        "209",
        "210",
        "211",
        "214",
        "N19",
        "N20",
        "N35",
        "N8",
        "R5"
      ]
    },
    {
      "id": "shelter-van-14",
      "type": "shelter",
      "name": "Grandview Calvary Baptist Church",
      "address": "1803 E 1st Ave",
      "intersection": "Grandview-Woodland",
      "region": "east-van",
      "hours": "Call for hours",
      "phone": "604-255-1411",
      "lat": 49.26974745114546,
      "lng": -123.06735635798717,
      "notes": "Meals available",
      "category": "Adults (all genders)",
      "nearby_routes": [
        "020",
        "N20"
      ]
    },
    {
      "id": "shelter-van-15",
      "type": "shelter",
      "name": "The Beacon",
      "address": "616 Powell St (Powell & Gore)",
      "intersection": "Downtown",
      "region": "downtown",
      "hours": "Call for hours",
      "phone": "604-646-6846",
      "lat": 49.282056211986955,
      "lng": -123.10109474719326,
      "notes": "",
      "category": "Men",
      "nearby_routes": [
        "003",
        "004",
        "007",
        "008",
        "014",
        "016",
        "019",
        "020",
        "022",
        "023",
        "050",
        "209",
        "210",
        "211",
        "214",
        "N19",
        "N20",
        "N35",
        "N8",
        "R5"
      ]
    },
    {
      "id": "shelter-van-16",
      "type": "shelter",
      "name": "Crosswalk",
      "address": "749 E Hastings St",
      "intersection": "Downtown",
      "region": "downtown",
      "hours": "Call for hours",
      "phone": "604-669-4349",
      "lat": 49.28180507947213,
      "lng": -123.10767247883172,
      "notes": "",
      "category": "Adults (all genders)",
      "nearby_routes": [
        "003",
        "004",
        "005",
        "006",
        "007",
        "008",
        "010",
        "014",
        "016",
        "017",
        "019",
        "020",
        "022",
        "023",
        "044",
        "050",
        "209",
        "210",
        "211",
        "214",
        "257",
        "Expo Line",
        "N15",
        "N19",
        "N20",
        "N22",
        "N24",
        "N35",
        "N8",
        "R5"
      ]
    },
    {
      "id": "shelter-van-17",
      "type": "shelter",
      "name": "Lookout Downtown",
      "address": "54 W Hastings St",
      "intersection": "Strathcona",
      "region": "downtown",
      "hours": "Call for hours",
      "phone": "604-681-9126",
      "lat": 49.28374408771319,
      "lng": -123.09620765787055,
      "notes": "Pets allowed",
      "category": "Adults (all genders)",
      "nearby_routes": [
        "003",
        "004",
        "007",
        "008",
        "014",
        "016",
        "019",
        "020",
        "022",
        "050",
        "209",
        "210",
        "211",
        "214",
        "N19",
        "N20",
        "N35",
        "N8",
        "R5"
      ]
    },
    {
      "id": "washroom-van-1",
      "type": "washroom",
      "name": "Andy Livingstone Park \u2014 South side, fieldhouse",
      "address": "South side, fieldhouse, Downtown",
      "intersection": "Downtown",
      "region": "downtown",
      "hours": "10:00 am - 11:00 pm",
      "phone": "",
      "lat": 49.27782096548506,
      "lng": -123.10359902275324,
      "notes": "Wheelchair accessible",
      "nearby_routes": [
        "003",
        "004",
        "007",
        "008",
        "014",
        "016",
        "019",
        "020",
        "022",
        "023",
        "050",
        "209",
        "210",
        "211",
        "214",
        "Expo Line",
        "N19",
        "N20",
        "N35",
        "N8"
      ]
    },
    {
      "id": "washroom-van-2",
      "type": "washroom",
      "name": "Balaclava Park \u2014 Central, field house",
      "address": "Central, field house, Dunbar-Southlands",
      "intersection": "Dunbar-Southlands",
      "region": "south-van",
      "hours": "Dawn to Dusk",
      "phone": "",
      "lat": 49.245233993117445,
      "lng": -123.17546094914356,
      "notes": "",
      "nearby_routes": [
        "002",
        "N22"
      ]
    },
    {
      "id": "washroom-van-3",
      "type": "washroom",
      "name": "Beaconsfield Park \u2014 East side, fieldhouse",
      "address": "East side, fieldhouse, Renfrew-Collingwood",
      "intersection": "Renfrew-Collingwood",
      "region": "east-van",
      "hours": "Dawn to Dusk",
      "phone": "",
      "lat": 49.25523298884104,
      "lng": -123.0499339599333,
      "notes": "",
      "nearby_routes": [
        "007",
        "016"
      ]
    },
    {
      "id": "washroom-van-4",
      "type": "washroom",
      "name": "Braemar Park \u2014 East edge, fieldhouse",
      "address": "East edge, fieldhouse, South Cambie",
      "intersection": "South Cambie",
      "region": "fairview",
      "hours": "Dawn to Dusk",
      "phone": "",
      "lat": 49.24742099334927,
      "lng": -123.12448302133969,
      "notes": "",
      "nearby_routes": [
        "017",
        "025"
      ]
    },
    {
      "id": "washroom-van-5",
      "type": "washroom",
      "name": "Collingwood Park \u2014 South corner, fieldhouse",
      "address": "South corner, fieldhouse, Renfrew-Collingwood",
      "intersection": "Renfrew-Collingwood",
      "region": "east-van",
      "hours": "Dawn to Dusk",
      "phone": "",
      "lat": 49.23652996300201,
      "lng": -123.03671596074696,
      "notes": "",
      "nearby_routes": [
        "019",
        "026",
        "027",
        "028",
        "041",
        "Expo Line",
        "N19",
        "R4"
      ]
    },
    {
      "id": "washroom-van-6",
      "type": "washroom",
      "name": "English Bay Beach Park \u2014 Bathhouse",
      "address": "Bathhouse, West End",
      "intersection": "West End",
      "region": "downtown",
      "hours": "7:00 am - Dusk",
      "phone": "",
      "lat": 49.28615403908275,
      "lng": -123.14280496653117,
      "notes": "Wheelchair accessible",
      "nearby_routes": [
        "005",
        "006",
        "023"
      ]
    },
    {
      "id": "washroom-van-7",
      "type": "washroom",
      "name": "Falaise Park \u2014 Community Hall",
      "address": "Community Hall, Renfrew-Collingwood",
      "intersection": "Renfrew-Collingwood",
      "region": "east-van",
      "hours": "Dawn to Dusk",
      "phone": "",
      "lat": 49.25512303377638,
      "lng": -123.02940598630023,
      "notes": "",
      "nearby_routes": [
        "027",
        "028"
      ]
    },
    {
      "id": "washroom-van-8",
      "type": "washroom",
      "name": "Fraser River Park \u2014 West corner",
      "address": "West corner, Kerrisdale",
      "intersection": "Kerrisdale",
      "region": "south-van",
      "hours": "Dawn to Dusk",
      "phone": "",
      "lat": 49.20739499780498,
      "lng": -123.14985600420111,
      "notes": ""
    },
    {
      "id": "washroom-van-9",
      "type": "washroom",
      "name": "Fraserview Golf Course \u2014 Kerr Road @13th hole",
      "address": "Kerr Road @13th hole, Killarney",
      "intersection": "Killarney",
      "region": "south-van",
      "hours": "Dawn to Dusk",
      "phone": "",
      "lat": 49.21129535127691,
      "lng": -123.04229966821495,
      "notes": "",
      "nearby_routes": [
        "080",
        "100"
      ]
    },
    {
      "id": "washroom-van-10",
      "type": "washroom",
      "name": "Hastings Community Park \u2014 Central, field house",
      "address": "Central, field house, Hastings-Sunrise",
      "intersection": "Hastings-Sunrise",
      "region": "east-van",
      "hours": "Dawn to Dusk",
      "phone": "",
      "lat": 49.28064797026025,
      "lng": -123.03787394911473,
      "notes": "",
      "nearby_routes": [
        "014",
        "016",
        "027",
        "N35",
        "R5"
      ]
    },
    {
      "id": "washroom-van-11",
      "type": "washroom",
      "name": "Jones Park \u2014 North west corner, fieldhouse",
      "address": "North west corner, fieldhouse, Kensington-Cedar Cottage",
      "intersection": "Kensington-Cedar Cottage",
      "region": "east-van",
      "hours": "Dawn to Dusk",
      "phone": "",
      "lat": 49.236204957989564,
      "lng": -123.0683280268142,
      "notes": "",
      "nearby_routes": [
        "020",
        "033",
        "041",
        "N20",
        "R4"
      ]
    },
    {
      "id": "washroom-van-12",
      "type": "washroom",
      "name": "Locarno Park \u2014 Concession at fieldhouse",
      "address": "Concession at fieldhouse, West Point Grey",
      "intersection": "West Point Grey",
      "region": "west-point-grey",
      "hours": "Dawn to Dusk",
      "phone": "",
      "lat": 49.275065991158456,
      "lng": -123.20655501267099,
      "notes": ""
    },
    {
      "id": "washroom-van-13",
      "type": "washroom",
      "name": "McBride Park \u2014 Central, field house",
      "address": "Central, field house, Kitsilano",
      "intersection": "Kitsilano",
      "region": "kitsilano",
      "hours": "Dawn to Dusk",
      "phone": "",
      "lat": 49.26810696563152,
      "lng": -123.18014096216841,
      "notes": "Wheelchair accessible",
      "nearby_routes": [
        "004",
        "007",
        "009",
        "014",
        "044",
        "084",
        "N17"
      ]
    },
    {
      "id": "washroom-van-14",
      "type": "washroom",
      "name": "Moberly Park \u2014 South west corner at Community Hall",
      "address": "South west corner at Community Hall, Sunset",
      "intersection": "Sunset",
      "region": "south-van",
      "hours": "Dawn to Dusk",
      "phone": "",
      "lat": 49.2152529947934,
      "lng": -123.08735497868794,
      "notes": "Wheelchair accessible",
      "nearby_routes": [
        "008",
        "080",
        "100",
        "N20",
        "N8"
      ]
    },
    {
      "id": "washroom-van-15",
      "type": "washroom",
      "name": "Montgomery Park \u2014 North east corner",
      "address": "North east corner, Oakridge",
      "intersection": "Oakridge",
      "region": "south-van",
      "hours": "Dawn to Dusk",
      "phone": "",
      "lat": 49.23182604554475,
      "lng": -123.12924098629418,
      "notes": "",
      "nearby_routes": [
        "017",
        "041",
        "R4"
      ]
    },
    {
      "id": "washroom-van-16",
      "type": "washroom",
      "name": "Nanaimo Park \u2014 North side, fieldhouse",
      "address": "North side, fieldhouse, Victoria-Fraserview",
      "intersection": "Victoria-Fraserview",
      "region": "south-van",
      "hours": "Dawn to Dusk",
      "phone": "",
      "lat": 49.22824199783675,
      "lng": -123.05742904218603,
      "notes": "",
      "nearby_routes": [
        "029",
        "049",
        "430"
      ]
    },
    {
      "id": "washroom-van-17",
      "type": "washroom",
      "name": "Oak Park \u2014 East side field house",
      "address": "East side field house, Marpole",
      "intersection": "Marpole",
      "region": "south-van",
      "hours": "Dawn to Dusk",
      "phone": "",
      "lat": 49.21628599415058,
      "lng": -123.12764097866088,
      "notes": "",
      "nearby_routes": [
        "017"
      ]
    },
    {
      "id": "washroom-van-18",
      "type": "washroom",
      "name": "Oppenheimer Park \u2014 North east corner",
      "address": "North east corner, Strathcona",
      "intersection": "Strathcona",
      "region": "downtown",
      "hours": "Tue - Sat 9:00 am - 8:00 pm",
      "phone": "",
      "lat": 49.28272631667144,
      "lng": -123.09382210202949,
      "notes": "",
      "nearby_routes": [
        "003",
        "004",
        "007",
        "008",
        "014",
        "016",
        "020",
        "022",
        "209",
        "210",
        "211",
        "214",
        "N20",
        "N35",
        "N8",
        "R5"
      ]
    },
    {
      "id": "washroom-van-19",
      "type": "washroom",
      "name": "Pandora Park \u2014 South side, fieldhouse",
      "address": "South side, fieldhouse, Grandview-Woodland",
      "intersection": "Grandview-Woodland",
      "region": "east-van",
      "hours": "9:00 am - 7:00 pm",
      "phone": "",
      "lat": 49.28227999739962,
      "lng": -123.05747804862285,
      "notes": "",
      "nearby_routes": [
        "004",
        "007",
        "014",
        "016",
        "209",
        "210",
        "211",
        "214",
        "N35",
        "R5"
      ]
    },
    {
      "id": "washroom-van-20",
      "type": "washroom",
      "name": "Quilchena Park \u2014 North east corner, fieldhouse",
      "address": "North east corner, fieldhouse, Arbutus Ridge",
      "intersection": "Arbutus Ridge",
      "region": "kitsilano",
      "hours": "Dawn to Dusk",
      "phone": "",
      "lat": 49.24464304772728,
      "lng": -123.14872394440481,
      "notes": "Wheelchair accessible",
      "nearby_routes": [
        "016"
      ]
    },
    {
      "id": "washroom-van-21",
      "type": "washroom",
      "name": "Riverfront Park \u2014 North side",
      "address": "North side, Killarney",
      "intersection": "Killarney",
      "region": "south-van",
      "hours": "Dawn to Dusk",
      "phone": "",
      "lat": 49.20576803638567,
      "lng": -123.0518469713802,
      "notes": "",
      "nearby_routes": [
        "080",
        "100"
      ]
    },
    {
      "id": "washroom-van-22",
      "type": "washroom",
      "name": "Trafalgar Park \u2014 North side, fieldhouse",
      "address": "North side, fieldhouse, Arbutus Ridge",
      "intersection": "Arbutus Ridge",
      "region": "kitsilano",
      "hours": "Dawn to Dusk",
      "phone": "",
      "lat": 49.25155496544842,
      "lng": -123.16347197280247,
      "notes": "Wheelchair accessible",
      "nearby_routes": [
        "002",
        "025",
        "N22"
      ]
    },
    {
      "id": "washroom-van-23",
      "type": "washroom",
      "name": "Victoria Park \u2014 West side",
      "address": "West side, Grandview-Woodland",
      "intersection": "Grandview-Woodland",
      "region": "east-van",
      "hours": "Dawn to Dusk",
      "phone": "",
      "lat": 49.27174404161449,
      "lng": -123.06741301627554,
      "notes": "",
      "nearby_routes": [
        "020",
        "N20"
      ]
    },
    {
      "id": "washroom-van-24",
      "type": "washroom",
      "name": "Winona Park \u2014 Fieldhouse",
      "address": "Fieldhouse, Marpole",
      "intersection": "Marpole",
      "region": "south-van",
      "hours": "Dawn to Dusk",
      "phone": "",
      "lat": 49.21571797941276,
      "lng": -123.11294894481753,
      "notes": "",
      "nearby_routes": [
        "003",
        "015",
        "100",
        "N15",
        "N20",
        "N8"
      ]
    },
    {
      "id": "washroom-van-25",
      "type": "washroom",
      "name": "Woodland Park \u2014 Central, field house",
      "address": "Central, field house, Grandview-Woodland",
      "intersection": "Grandview-Woodland",
      "region": "east-van",
      "hours": "Dawn to Dusk",
      "phone": "",
      "lat": 49.27836897097232,
      "lng": -123.07322000486613,
      "notes": "",
      "nearby_routes": [
        "014",
        "016",
        "020",
        "022",
        "N20",
        "N35",
        "R5"
      ]
    },
    {
      "id": "washroom-van-26",
      "type": "washroom",
      "name": "Britannia \u2014 1661 Napier St",
      "address": "1661 Napier St, Grandview-Woodland",
      "intersection": "Grandview-Woodland",
      "region": "east-van",
      "hours": "as per CC operating hours",
      "phone": "",
      "lat": 49.27504267038552,
      "lng": -123.07065277917624,
      "notes": "",
      "nearby_routes": [
        "020",
        "022",
        "N20"
      ]
    },
    {
      "id": "washroom-van-27",
      "type": "washroom",
      "name": "Carnegie Centre \u2014 401 Main St",
      "address": "401 Main St, Downtown",
      "intersection": "Downtown",
      "region": "downtown",
      "hours": "as per CC operating hours",
      "phone": "",
      "lat": 49.28105198363986,
      "lng": -123.1001272122058,
      "notes": "",
      "nearby_routes": [
        "003",
        "004",
        "007",
        "008",
        "014",
        "016",
        "019",
        "020",
        "022",
        "023",
        "050",
        "209",
        "210",
        "211",
        "214",
        "N19",
        "N20",
        "N35",
        "N8",
        "R5"
      ]
    },
    {
      "id": "washroom-van-28",
      "type": "washroom",
      "name": "Coal Harbour \u2014 480 Broughton St",
      "address": "480 Broughton St, Downtown",
      "intersection": "Downtown",
      "region": "downtown",
      "hours": "as per CC operating hours",
      "phone": "",
      "lat": 49.29029937889089,
      "lng": -123.12505292931658,
      "notes": "",
      "nearby_routes": [
        "005",
        "019",
        "022",
        "209",
        "210",
        "211",
        "214",
        "240",
        "241",
        "246",
        "247",
        "250",
        "253",
        "254",
        "N24"
      ]
    },
    {
      "id": "washroom-van-29",
      "type": "washroom",
      "name": "Douglas Park \u2014 801 W 22nd Av",
      "address": "801 W 22nd Av, South Cambie",
      "intersection": "South Cambie",
      "region": "fairview",
      "hours": "as per CC operating hours",
      "phone": "",
      "lat": 49.25211550271443,
      "lng": -123.1224846980371,
      "notes": "",
      "nearby_routes": [
        "017",
        "025"
      ]
    },
    {
      "id": "washroom-van-30",
      "type": "washroom",
      "name": "Hastings \u2014 3096 E Hastings St",
      "address": "3096 E Hastings St, Hastings-Sunrise",
      "intersection": "Hastings-Sunrise",
      "region": "east-van",
      "hours": "as per CC operating hours",
      "phone": "",
      "lat": 49.28080523370132,
      "lng": -123.03930991502807,
      "notes": "",
      "nearby_routes": [
        "014",
        "016",
        "N35",
        "R5"
      ]
    },
    {
      "id": "washroom-van-31",
      "type": "washroom",
      "name": "Hillcrest \u2014 4575 Clancy Loranger Way",
      "address": "4575 Clancy Loranger Way, Riley Park",
      "intersection": "Riley Park",
      "region": "mount-pleasant",
      "hours": "as per CC operating hours",
      "phone": "",
      "lat": 49.24386283540143,
      "lng": -123.10801095525642,
      "notes": "",
      "nearby_routes": [
        "003",
        "033"
      ]
    },
    {
      "id": "washroom-van-32",
      "type": "washroom",
      "name": "Kensington \u2014 5175 Dumfries St",
      "address": "5175 Dumfries St, Kensington-Cedar Cottage",
      "intersection": "Kensington-Cedar Cottage",
      "region": "east-van",
      "hours": "as per CC operating hours",
      "phone": "",
      "lat": 49.237165754113256,
      "lng": -123.07466320602174,
      "notes": "",
      "nearby_routes": [
        "022",
        "033"
      ]
    },
    {
      "id": "washroom-van-33",
      "type": "washroom",
      "name": "Kerrisdale \u2014 5851 West Boulevard",
      "address": "5851 West Boulevard, Kerrisdale",
      "intersection": "Kerrisdale",
      "region": "south-van",
      "hours": "as per CC operating hours",
      "phone": "",
      "lat": 49.23318535416131,
      "lng": -123.15709290739301,
      "notes": "",
      "nearby_routes": [
        "016",
        "041",
        "R4"
      ]
    },
    {
      "id": "washroom-van-34",
      "type": "washroom",
      "name": "Killarney \u2014 6260 Killarney St",
      "address": "6260 Killarney St, Killarney",
      "intersection": "Killarney",
      "region": "south-van",
      "hours": "as per CC operating hours",
      "phone": "",
      "lat": 49.227036528643545,
      "lng": -123.04396930018117,
      "notes": "",
      "nearby_routes": [
        "026",
        "049",
        "430"
      ]
    },
    {
      "id": "washroom-van-35",
      "type": "washroom",
      "name": "Ray-Cam Co-Operative Center \u2014 920 E Hastings St",
      "address": "920 E Hastings St, Strathcona",
      "intersection": "Strathcona",
      "region": "downtown",
      "hours": "as per CC operating hours",
      "phone": "",
      "lat": 49.28073616037968,
      "lng": -123.0840893336462,
      "notes": "",
      "nearby_routes": [
        "004",
        "007",
        "014",
        "016",
        "020",
        "022",
        "209",
        "N20",
        "N35"
      ]
    },
    {
      "id": "washroom-van-36",
      "type": "washroom",
      "name": "Strathcona \u2014 601 Keefer St",
      "address": "601 Keefer St, Strathcona",
      "intersection": "Strathcona",
      "region": "downtown",
      "hours": "as per CC operating hours",
      "phone": "",
      "lat": 49.27977979183258,
      "lng": -123.09154620769539,
      "notes": "",
      "nearby_routes": [
        "004",
        "007",
        "014",
        "016",
        "020",
        "022",
        "209",
        "210",
        "211",
        "214",
        "N20",
        "N35"
      ]
    },
    {
      "id": "washroom-van-37",
      "type": "washroom",
      "name": "Thunderbird \u2014 2311 Cassiar St",
      "address": "2311 Cassiar St, Hastings-Sunrise",
      "intersection": "Hastings-Sunrise",
      "region": "east-van",
      "hours": "as per CC operating hours",
      "phone": "",
      "lat": 49.26360783509205,
      "lng": -123.03210372093348,
      "notes": "",
      "nearby_routes": [
        "009",
        "027",
        "099",
        "Millennium Line",
        "N9"
      ]
    },
    {
      "id": "washroom-van-38",
      "type": "washroom",
      "name": "Trout Lake \u2014 3360 Victoria Drive",
      "address": "3360 Victoria Drive, Kensington-Cedar Cottage",
      "intersection": "Kensington-Cedar Cottage",
      "region": "east-van",
      "hours": "as per CC operating hours",
      "phone": "",
      "lat": 49.25529203110348,
      "lng": -123.0655282767287,
      "notes": "",
      "nearby_routes": [
        "020",
        "N20"
      ]
    },
    {
      "id": "washroom-van-39",
      "type": "washroom",
      "name": "West Point Grey \u2014 4397 W 2nd Av",
      "address": "4397 W 2nd Av, West Point Grey",
      "intersection": "West Point Grey",
      "region": "west-point-grey",
      "hours": "as per CC operating hours",
      "phone": "",
      "lat": 49.271797159811925,
      "lng": -123.2045334775624,
      "notes": "",
      "nearby_routes": [
        "004",
        "044",
        "084"
      ]
    },
    {
      "id": "washroom-van-40",
      "type": "washroom",
      "name": "Spanish Banks Beach Park \u2014 West, fieldhouse",
      "address": "West, fieldhouse, West Point Grey",
      "intersection": "West Point Grey",
      "region": "west-point-grey",
      "hours": "Dawn to Dusk",
      "phone": "",
      "lat": 49.277471985052316,
      "lng": -123.22267905551811,
      "notes": "Wheelchair accessible"
    },
    {
      "id": "washroom-van-41",
      "type": "washroom",
      "name": "Jericho Beach Park \u2014 Service Yard - public exterior attached to service building",
      "address": "Service Yard - public exterior attached to service building, West Point Grey",
      "intersection": "West Point Grey",
      "region": "kitsilano",
      "hours": "Dawn - 11:00 pm",
      "phone": "",
      "lat": 49.27442916398891,
      "lng": -123.20282013106967,
      "notes": "Wheelchair accessible"
    },
    {
      "id": "washroom-van-42",
      "type": "washroom",
      "name": "New Brighton Park \u2014 North east corner, fieldhouse",
      "address": "North east corner, fieldhouse, Hastings-Sunrise",
      "intersection": "Hastings-Sunrise",
      "region": "east-van",
      "hours": "Dawn to Dusk",
      "phone": "",
      "lat": 49.289333968905524,
      "lng": -123.03602500739287,
      "notes": "Wheelchair accessible"
    },
    {
      "id": "washroom-van-43",
      "type": "washroom",
      "name": "Stanley Park \u2014 Prospect Point",
      "address": "Prospect Point",
      "intersection": "",
      "region": "downtown",
      "hours": "Dawn to Dusk",
      "phone": "",
      "lat": 49.312411041976254,
      "lng": -123.14264883145943,
      "notes": "Wheelchair accessible"
    },
    {
      "id": "washroom-van-44",
      "type": "washroom",
      "name": "Stanley Park \u2014 Ceperley Picnic Shelter",
      "address": "Ceperley Picnic Shelter",
      "intersection": "",
      "region": "downtown",
      "hours": "Dawn to Dusk",
      "phone": "",
      "lat": 49.29359490462253,
      "lng": -123.14868000781655,
      "notes": "Wheelchair accessible"
    },
    {
      "id": "washroom-van-45",
      "type": "washroom",
      "name": "Stanley Park \u2014 Train, Picnic Shelter",
      "address": "Train, Picnic Shelter",
      "intersection": "",
      "region": "downtown",
      "hours": "Dawn to Dusk",
      "phone": "",
      "lat": 49.30206900196944,
      "lng": -123.13292304169951,
      "notes": "Wheelchair accessible",
      "nearby_routes": [
        "019"
      ]
    },
    {
      "id": "washroom-van-46",
      "type": "washroom",
      "name": "Stanley Park \u2014 Info Booth",
      "address": "Info Booth",
      "intersection": "",
      "region": "downtown",
      "hours": "Dawn to Dusk",
      "phone": "",
      "lat": 49.297753013375036,
      "lng": -123.13143296597215,
      "notes": "Wheelchair accessible",
      "nearby_routes": [
        "019"
      ]
    },
    {
      "id": "washroom-van-47",
      "type": "washroom",
      "name": "Stanley Park \u2014 Totems",
      "address": "Totems",
      "intersection": "",
      "region": "downtown",
      "hours": "Dawn to Dusk",
      "phone": "",
      "lat": 49.29944002245292,
      "lng": -123.12127801954024,
      "notes": "Wheelchair accessible"
    },
    {
      "id": "washroom-van-48",
      "type": "washroom",
      "name": "Robson Park \u2014 South East Corner Fieldhouse",
      "address": "South East Corner Fieldhouse, Mount Pleasant",
      "intersection": "Mount Pleasant",
      "region": "mount-pleasant",
      "hours": "Dawn to dusk",
      "phone": "",
      "lat": 49.25773293062128,
      "lng": -123.09133535945465,
      "notes": "",
      "nearby_routes": [
        "008",
        "019",
        "N19",
        "N8"
      ]
    },
    {
      "id": "washroom-van-49",
      "type": "washroom",
      "name": "Oak Meadows Park \u2014 NW Corner",
      "address": "NW Corner, South Cambie",
      "intersection": "South Cambie",
      "region": "fairview",
      "hours": "Dawn to Dusk",
      "phone": "",
      "lat": 49.239023555598024,
      "lng": -123.1269603577517,
      "notes": "Wheelchair accessible",
      "nearby_routes": [
        "017"
      ]
    },
    {
      "id": "washroom-van-50",
      "type": "washroom",
      "name": "Musqueam Park \u2014 4000 SW Marine Dr",
      "address": "4000 SW Marine Dr, Dunbar-Southlands",
      "intersection": "Dunbar-Southlands",
      "region": "south-van",
      "hours": "Dawn to dusk",
      "phone": "",
      "lat": 49.229432279280935,
      "lng": -123.18992303549685,
      "notes": "",
      "nearby_routes": [
        "049"
      ]
    },
    {
      "id": "washroom-van-51",
      "type": "washroom",
      "name": "Vancouver Technical Secondary \u2014 NE of synturf field",
      "address": "NE of synturf field, Renfrew-Collingwood",
      "intersection": "Renfrew-Collingwood",
      "region": "east-van",
      "hours": "Dawn to dusk",
      "phone": "",
      "lat": 49.26055815523328,
      "lng": -123.05008933604122,
      "notes": "",
      "nearby_routes": [
        "007",
        "009",
        "016",
        "027",
        "099",
        "Millennium Line",
        "N9"
      ]
    },
    {
      "id": "washroom-van-52",
      "type": "washroom",
      "name": "Heather Marina \u2014 Marina Building",
      "address": "Marina Building, Fairview",
      "intersection": "Fairview",
      "region": "fairview",
      "hours": "Dawn to dusk",
      "phone": "",
      "lat": 49.26886147584729,
      "lng": -123.11871635134744,
      "notes": "",
      "nearby_routes": [
        "015",
        "050",
        "084",
        "Canada Line"
      ]
    },
    {
      "id": "washroom-van-53",
      "type": "washroom",
      "name": "Coopers' Park \u2014 East side of baskeball court",
      "address": "East side of baskeball court, Downtown",
      "intersection": "Downtown",
      "region": "downtown",
      "hours": "24 hrs",
      "phone": "",
      "lat": 49.2730422860486,
      "lng": -123.11441858743608,
      "notes": "Wheelchair accessible",
      "nearby_routes": [
        "006",
        "017",
        "023",
        "N15"
      ]
    },
    {
      "id": "washroom-van-54",
      "type": "washroom",
      "name": "Kerrisdale Park \u2014 Ice Rink",
      "address": "Ice Rink, Shaughnessy",
      "intersection": "Shaughnessy",
      "region": "south-van",
      "hours": "Dawn to dusk",
      "phone": "",
      "lat": 49.23543806889157,
      "lng": -123.15353285764634,
      "notes": "",
      "nearby_routes": [
        "016",
        "041",
        "R4"
      ]
    },
    {
      "id": "washroom-van-55",
      "type": "washroom",
      "name": " \u2014 Powell St and Main St",
      "address": "Powell St and Main St, Downtown",
      "intersection": "Downtown",
      "region": "downtown",
      "hours": "24hrs - 24hrs",
      "phone": "",
      "lat": 49.28327564458233,
      "lng": -123.09985255600299,
      "notes": "",
      "nearby_routes": [
        "003",
        "004",
        "007",
        "008",
        "014",
        "016",
        "019",
        "020",
        "022",
        "050",
        "209",
        "210",
        "211",
        "214",
        "N19",
        "N20",
        "N35",
        "N8",
        "R5"
      ]
    },
    {
      "id": "washroom-van-56",
      "type": "washroom",
      "name": " \u2014 Richards St and Davie St, Emery Barnes Park",
      "address": "Richards St and Davie St, Emery Barnes Park, Downtown",
      "intersection": "Downtown",
      "region": "downtown",
      "hours": "24hrs - 24hrs",
      "phone": "",
      "lat": 49.27604879059326,
      "lng": -123.12409855430495,
      "notes": "",
      "nearby_routes": [
        "002",
        "004",
        "006",
        "007",
        "010",
        "014",
        "016",
        "017",
        "023",
        "044",
        "050",
        "Canada Line",
        "N10",
        "N15",
        "N17",
        "N22",
        "N9"
      ]
    },
    {
      "id": "washroom-van-57",
      "type": "washroom",
      "name": " \u2014 Main St and E Hastings St",
      "address": "Main St and E Hastings St, Downtown",
      "intersection": "Downtown",
      "region": "downtown",
      "hours": "8am (female) 6am (male) - Midnight",
      "phone": "",
      "lat": 49.281101387413884,
      "lng": -123.09983455686559,
      "notes": "",
      "nearby_routes": [
        "003",
        "004",
        "007",
        "008",
        "014",
        "016",
        "019",
        "020",
        "022",
        "023",
        "050",
        "209",
        "210",
        "211",
        "214",
        "N19",
        "N20",
        "N35",
        "N8",
        "R5"
      ]
    },
    {
      "id": "washroom-van-58",
      "type": "washroom",
      "name": " \u2014 W Hastings St and Carral St - Pigeon Park",
      "address": "W Hastings St and Carral St - Pigeon Park, Downtown",
      "intersection": "Downtown",
      "region": "downtown",
      "hours": "9am - 9pm",
      "phone": "",
      "lat": 49.28163278844592,
      "lng": -123.104586555944,
      "notes": "",
      "nearby_routes": [
        "003",
        "004",
        "005",
        "006",
        "007",
        "008",
        "014",
        "016",
        "017",
        "019",
        "020",
        "022",
        "023",
        "050",
        "209",
        "210",
        "211",
        "214",
        "Expo Line",
        "N15",
        "N19",
        "N20",
        "N24",
        "N35",
        "N8",
        "R5"
      ]
    },
    {
      "id": "washroom-van-59",
      "type": "washroom",
      "name": " \u2014 Bute St, Nelson Park",
      "address": "Bute St, Nelson Park, West End",
      "intersection": "West End",
      "region": "downtown",
      "hours": "24hrs - 24hrs",
      "phone": "",
      "lat": 49.283372391399475,
      "lng": -123.13066155087947,
      "notes": "Wheelchair accessible",
      "nearby_routes": [
        "002",
        "005",
        "006",
        "044",
        "N22"
      ]
    },
    {
      "id": "washroom-van-60",
      "type": "washroom",
      "name": " \u2014 Bute at Davie",
      "address": "Bute at Davie, West End",
      "intersection": "West End",
      "region": "downtown",
      "hours": "24hrs - 24hrs",
      "phone": "",
      "lat": 49.282049830178636,
      "lng": -123.13309096598627,
      "notes": "Wheelchair accessible",
      "nearby_routes": [
        "002",
        "006",
        "023",
        "044",
        "N22"
      ]
    },
    {
      "id": "washroom-van-61",
      "type": "washroom",
      "name": " \u2014 Robson St and Granville St",
      "address": "Robson St and Granville St, Downtown",
      "intersection": "Downtown",
      "region": "downtown",
      "hours": "6am - 10pm",
      "phone": "",
      "lat": 49.28162689042433,
      "lng": -123.12006655436043,
      "notes": "Wheelchair accessible",
      "nearby_routes": [
        "002",
        "004",
        "005",
        "007",
        "010",
        "014",
        "016",
        "017",
        "019",
        "020",
        "022",
        "044",
        "050",
        "209",
        "210",
        "211",
        "214",
        "240",
        "241",
        "246",
        "247",
        "250",
        "253",
        "254",
        "257",
        "Canada Line",
        "Expo Line",
        "N10",
        "N15",
        "N17",
        "N19",
        "N20",
        "N22",
        "N24",
        "N35",
        "N8",
        "N9"
      ]
    },
    {
      "id": "washroom-van-62",
      "type": "washroom",
      "name": "Adanac Park \u2014 East side, fieldhouse",
      "address": "East side, fieldhouse, Hastings-Sunrise",
      "intersection": "Hastings-Sunrise",
      "region": "east-van",
      "hours": "Dawn to Dusk",
      "phone": "",
      "lat": 49.27588096678926,
      "lng": -123.02407196073857,
      "notes": "",
      "nearby_routes": [
        "027",
        "028",
        "R5"
      ]
    },
    {
      "id": "washroom-van-63",
      "type": "washroom",
      "name": "Barclay Heritage Square \u2014 Barclay Manor (WECC)",
      "address": "Barclay Manor (WECC), West End",
      "intersection": "West End",
      "region": "downtown",
      "hours": "as per CC operating hours",
      "phone": "",
      "lat": 49.28721486907015,
      "lng": -123.1325605108117,
      "notes": "",
      "nearby_routes": [
        "005",
        "006",
        "019",
        "240",
        "241",
        "246",
        "247",
        "250",
        "253",
        "254",
        "N24"
      ]
    },
    {
      "id": "washroom-van-64",
      "type": "washroom",
      "name": "Bobolink Park \u2014 North side, fieldhouse",
      "address": "North side, fieldhouse, Victoria-Fraserview",
      "intersection": "Victoria-Fraserview",
      "region": "south-van",
      "hours": "Dawn to Dusk",
      "phone": "",
      "lat": 49.21560698536666,
      "lng": -123.0564149547593,
      "notes": "",
      "nearby_routes": [
        "029"
      ]
    },
    {
      "id": "washroom-van-65",
      "type": "washroom",
      "name": "Burrard View Park \u2014 Fieldhouse",
      "address": "Fieldhouse, Hastings-Sunrise",
      "intersection": "Hastings-Sunrise",
      "region": "east-van",
      "hours": "Dawn to Dusk",
      "phone": "",
      "lat": 49.29036396133096,
      "lng": -123.0496489708471,
      "notes": "",
      "nearby_routes": [
        "004",
        "209",
        "210",
        "211",
        "214"
      ]
    },
    {
      "id": "washroom-van-66",
      "type": "washroom",
      "name": "Carnarvon Park \u2014 West side, field house",
      "address": "West side, field house, Arbutus Ridge",
      "intersection": "Arbutus Ridge",
      "region": "kitsilano",
      "hours": "Dawn to Dusk",
      "phone": "",
      "lat": 49.25674201569889,
      "lng": -123.17260900971546,
      "notes": "",
      "nearby_routes": [
        "002",
        "033",
        "N22"
      ]
    },
    {
      "id": "washroom-van-67",
      "type": "washroom",
      "name": "Chaldecott Park \u2014 East side fieldhouse",
      "address": "East side fieldhouse, Dunbar-Southlands",
      "intersection": "Dunbar-Southlands",
      "region": "south-van",
      "hours": "Dawn to Dusk",
      "phone": "",
      "lat": 49.24942695918215,
      "lng": -123.19112496215546,
      "notes": "",
      "nearby_routes": [
        "007",
        "025"
      ]
    },
    {
      "id": "washroom-van-68",
      "type": "washroom",
      "name": "Clinton Park \u2014 North east corner, fieldhouse",
      "address": "North east corner, fieldhouse, Hastings-Sunrise",
      "intersection": "Hastings-Sunrise",
      "region": "east-van",
      "hours": "Dawn to Dusk",
      "phone": "",
      "lat": 49.27114503209186,
      "lng": -123.04978202766654,
      "notes": "",
      "nearby_routes": [
        "016"
      ]
    },
    {
      "id": "washroom-van-69",
      "type": "washroom",
      "name": "Columbia Park \u2014 West Side",
      "address": "West Side, Oakridge",
      "intersection": "Oakridge",
      "region": "south-van",
      "hours": "Dawn to Dusk Weekends only",
      "phone": "",
      "lat": 49.23177479977243,
      "lng": -123.11313783023915,
      "notes": "Wheelchair accessible",
      "nearby_routes": [
        "015",
        "041",
        "Canada Line",
        "N15",
        "R4"
      ]
    },
    {
      "id": "washroom-van-70",
      "type": "washroom",
      "name": "David Lam Park \u2014 West side",
      "address": "West side, Downtown",
      "intersection": "Downtown",
      "region": "downtown",
      "hours": "10:00 am - Dusk",
      "phone": "",
      "lat": 49.272383006627635,
      "lng": -123.12541503573894,
      "notes": "",
      "nearby_routes": [
        "004",
        "006",
        "007",
        "010",
        "014",
        "016",
        "023",
        "050",
        "Canada Line",
        "N10",
        "N17",
        "N9"
      ]
    },
    {
      "id": "washroom-van-71",
      "type": "washroom",
      "name": "Elm Park \u2014 Central, field house",
      "address": "Central, field house, Kerrisdale",
      "intersection": "Kerrisdale",
      "region": "south-van",
      "hours": "Dawn to Dusk",
      "phone": "",
      "lat": 49.23343197827387,
      "lng": -123.16328394393365,
      "notes": "",
      "nearby_routes": [
        "041"
      ]
    },
    {
      "id": "washroom-van-72",
      "type": "washroom",
      "name": "Granville Park \u2014 Central, field house",
      "address": "Central, field house, Fairview",
      "intersection": "Fairview",
      "region": "fairview",
      "hours": "Dawn to Dusk",
      "phone": "",
      "lat": 49.25849301101646,
      "lng": -123.1419699494165,
      "notes": "",
      "nearby_routes": [
        "009",
        "010",
        "016",
        "033",
        "N10"
      ]
    },
    {
      "id": "washroom-van-73",
      "type": "washroom",
      "name": "Harbour Green Park \u2014 Central",
      "address": "Central, Downtown",
      "intersection": "Downtown",
      "region": "downtown",
      "hours": "Dawn to Dusk",
      "phone": "",
      "lat": 49.289804013552704,
      "lng": -123.12146699909357,
      "notes": "",
      "nearby_routes": [
        "002",
        "019",
        "022",
        "044",
        "209",
        "210",
        "211",
        "214",
        "240",
        "241",
        "246",
        "247",
        "250",
        "253",
        "254",
        "Expo Line",
        "N24",
        "R5"
      ]
    },
    {
      "id": "washroom-van-74",
      "type": "washroom",
      "name": "John Hendry (Trout Lake) Park \u2014 At Trout Lake",
      "address": "At Trout Lake, Kensington-Cedar Cottage",
      "intersection": "Kensington-Cedar Cottage",
      "region": "east-van",
      "hours": "Dawn to Dusk",
      "phone": "",
      "lat": 49.25392603797215,
      "lng": -123.0613879883137,
      "notes": "Wheelchair accessible",
      "nearby_routes": [
        "007",
        "020",
        "N20"
      ]
    },
    {
      "id": "washroom-van-75",
      "type": "washroom",
      "name": "Jonathan Rogers Park \u2014 North side, fieldhouse",
      "address": "North side, fieldhouse, Mount Pleasant",
      "intersection": "Mount Pleasant",
      "region": "mount-pleasant",
      "hours": "Dawn to Dusk",
      "phone": "",
      "lat": 49.26449802894082,
      "lng": -123.10762001604982,
      "notes": "",
      "nearby_routes": [
        "009",
        "099",
        "N9"
      ]
    },
    {
      "id": "washroom-van-76",
      "type": "washroom",
      "name": "Memorial South Park \u2014 Oval",
      "address": "Oval, Sunset",
      "intersection": "Sunset",
      "region": "south-van",
      "hours": "Dawn to Dusk",
      "phone": "",
      "lat": 49.23073803414045,
      "lng": -123.08438800219717,
      "notes": "Wheelchair accessible",
      "nearby_routes": [
        "008",
        "041",
        "N8"
      ]
    },
    {
      "id": "washroom-van-77",
      "type": "washroom",
      "name": "Memorial West Park \u2014 Central, field house",
      "address": "Central, field house, Dunbar-Southlands",
      "intersection": "Dunbar-Southlands",
      "region": "south-van",
      "hours": "Dawn to Dusk",
      "phone": "",
      "lat": 49.243334983865445,
      "lng": -123.18845500351183,
      "notes": "",
      "nearby_routes": [
        "007"
      ]
    },
    {
      "id": "washroom-van-78",
      "type": "washroom",
      "name": "Norquay Park \u2014 West side, field house",
      "address": "West side, field house, Renfrew-Collingwood",
      "intersection": "Renfrew-Collingwood",
      "region": "east-van",
      "hours": "Dawn to Dusk",
      "phone": "",
      "lat": 49.23797498982738,
      "lng": -123.05142495965826,
      "notes": "",
      "nearby_routes": [
        "016",
        "019",
        "026",
        "029",
        "033",
        "N19"
      ]
    },
    {
      "id": "washroom-van-79",
      "type": "washroom",
      "name": "Strathcona Park \u2014 South side, fieldhouse",
      "address": "South side, fieldhouse, Strathcona",
      "intersection": "Strathcona",
      "region": "downtown",
      "hours": "Dawn to Dusk",
      "phone": "",
      "lat": 49.27455700573556,
      "lng": -123.08618899110526,
      "notes": "",
      "nearby_routes": [
        "022"
      ]
    },
    {
      "id": "washroom-van-80",
      "type": "washroom",
      "name": "Sunrise Park \u2014 North west corner, fieldhouse",
      "address": "North west corner, fieldhouse, Hastings-Sunrise",
      "intersection": "Hastings-Sunrise",
      "region": "east-van",
      "hours": "Dawn to Dusk",
      "phone": "",
      "lat": 49.26692299065219,
      "lng": -123.03601798297022,
      "notes": "",
      "nearby_routes": [
        "027"
      ]
    },
    {
      "id": "washroom-van-81",
      "type": "washroom",
      "name": "Sunset Beach Park \u2014 Concession",
      "address": "Concession, West End",
      "intersection": "West End",
      "region": "downtown",
      "hours": "Dawn to Dusk",
      "phone": "",
      "lat": 49.27883701378575,
      "lng": -123.13795004381072,
      "notes": "Wheelchair accessible",
      "nearby_routes": [
        "002",
        "006",
        "023",
        "N22"
      ]
    },
    {
      "id": "washroom-van-82",
      "type": "washroom",
      "name": "Trillium Park \u2014 Fieldhouses North of Fields",
      "address": "Fieldhouses North of Fields, Strathcona",
      "intersection": "Strathcona",
      "region": "downtown",
      "hours": "Dawn to 10:15 pm",
      "phone": "",
      "lat": 49.274907788983555,
      "lng": -123.09279211961662,
      "notes": "Wheelchair accessible",
      "nearby_routes": [
        "022",
        "023"
      ]
    },
    {
      "id": "washroom-van-83",
      "type": "washroom",
      "name": "Vanier Park \u2014 Burrard Civic Marina",
      "address": "Burrard Civic Marina, Kitsilano",
      "intersection": "Kitsilano",
      "region": "kitsilano",
      "hours": "Dawn to Dusk",
      "phone": "",
      "lat": 49.275196010474275,
      "lng": -123.13985594322915,
      "notes": "Wheelchair accessible",
      "nearby_routes": [
        "023"
      ]
    },
    {
      "id": "washroom-van-84",
      "type": "washroom",
      "name": "Evelyne Saller Centre \u2014 320 Alexander St",
      "address": "320 Alexander St, Strathcona",
      "intersection": "Strathcona",
      "region": "downtown",
      "hours": "as per CC operating hours",
      "phone": "",
      "lat": 49.283874513136325,
      "lng": -123.09708430739617,
      "notes": "",
      "nearby_routes": [
        "003",
        "004",
        "007",
        "008",
        "014",
        "016",
        "019",
        "020",
        "022",
        "050",
        "209",
        "210",
        "211",
        "214",
        "N19",
        "N20",
        "N35",
        "N8",
        "R5"
      ]
    },
    {
      "id": "washroom-van-85",
      "type": "washroom",
      "name": "Kitsilano War Memorial \u2014 2690 Larch St",
      "address": "2690 Larch St, Kitsilano",
      "intersection": "Kitsilano",
      "region": "kitsilano",
      "hours": "as per CC operating hours",
      "phone": "",
      "lat": 49.26234325331626,
      "lng": -123.16185934533655,
      "notes": "",
      "nearby_routes": [
        "002",
        "009",
        "099",
        "N17",
        "N22"
      ]
    },
    {
      "id": "washroom-van-86",
      "type": "washroom",
      "name": "Mount Pleasant \u2014 1 Kingsway",
      "address": "1 Kingsway, Mount Pleasant",
      "intersection": "Mount Pleasant",
      "region": "mount-pleasant",
      "hours": "as per CC operating hours",
      "phone": "",
      "lat": 49.264314648364575,
      "lng": -123.10022103999772,
      "notes": "",
      "nearby_routes": [
        "003",
        "008",
        "009",
        "019",
        "084",
        "099",
        "N19",
        "N8",
        "N9"
      ]
    },
    {
      "id": "washroom-van-87",
      "type": "washroom",
      "name": "Renfrew Park \u2014 2929 E 22nd Av",
      "address": "2929 E 22nd Av, Renfrew-Collingwood",
      "intersection": "Renfrew-Collingwood",
      "region": "east-van",
      "hours": "as per CC operating hours",
      "phone": "",
      "lat": 49.25139334511874,
      "lng": -123.04253597366504,
      "notes": "",
      "nearby_routes": [
        "016",
        "025"
      ]
    },
    {
      "id": "washroom-van-88",
      "type": "washroom",
      "name": "Roundhouse \u2014 181 Roundhouse Mews",
      "address": "181 Roundhouse Mews, Downtown",
      "intersection": "Downtown",
      "region": "downtown",
      "hours": "as per CC operating hours",
      "phone": "",
      "lat": 49.27331410685403,
      "lng": -123.12187292336924,
      "notes": "",
      "nearby_routes": [
        "004",
        "006",
        "007",
        "010",
        "014",
        "016",
        "017",
        "023",
        "050",
        "Canada Line",
        "N10",
        "N15",
        "N17",
        "N9"
      ]
    },
    {
      "id": "washroom-van-89",
      "type": "washroom",
      "name": "West End \u2014 870 Denman St",
      "address": "870 Denman St, West End",
      "intersection": "West End",
      "region": "downtown",
      "hours": "as per CC operating hours",
      "phone": "",
      "lat": 49.28991296095473,
      "lng": -123.13607377734198,
      "notes": "",
      "nearby_routes": [
        "005",
        "006",
        "019",
        "023",
        "044",
        "240",
        "241",
        "246",
        "247",
        "250",
        "253",
        "254",
        "257",
        "N24"
      ]
    },
    {
      "id": "washroom-van-90",
      "type": "washroom",
      "name": "Spanish Banks Beach Park \u2014 East, fieldhouse",
      "address": "East, fieldhouse, West Point Grey",
      "intersection": "West Point Grey",
      "region": "west-point-grey",
      "hours": "Dawn to Dusk",
      "phone": "",
      "lat": 49.27624397436726,
      "lng": -123.21492003723966,
      "notes": "Wheelchair accessible"
    },
    {
      "id": "washroom-van-91",
      "type": "washroom",
      "name": "Queen Elizabeth Park \u2014 Fieldhouse",
      "address": "Fieldhouse, Riley Park",
      "intersection": "Riley Park",
      "region": "mount-pleasant",
      "hours": "Dawn to Dusk",
      "phone": "",
      "lat": 49.23893801685196,
      "lng": -123.11157705659876,
      "notes": "",
      "nearby_routes": [
        "015",
        "033",
        "N15"
      ]
    },
    {
      "id": "washroom-van-92",
      "type": "washroom",
      "name": "Queen Elizabeth Park \u2014 Lookout",
      "address": "Lookout, Riley Park",
      "intersection": "Riley Park",
      "region": "mount-pleasant",
      "hours": "7:30 am - 9:00 pm",
      "phone": "",
      "lat": 49.24221158928846,
      "lng": -123.1129392155845,
      "notes": "",
      "nearby_routes": [
        "015",
        "033",
        "N15"
      ]
    },
    {
      "id": "washroom-van-93",
      "type": "washroom",
      "name": "Rupert Park \u2014 Pitch & Putt (north side)",
      "address": "Pitch & Putt (north side), Hastings-Sunrise",
      "intersection": "Hastings-Sunrise",
      "region": "east-van",
      "hours": "Dawn to Dusk",
      "phone": "",
      "lat": 49.27305000035256,
      "lng": -123.03068295983304,
      "notes": "Wheelchair accessible",
      "nearby_routes": [
        "027"
      ]
    },
    {
      "id": "washroom-van-94",
      "type": "washroom",
      "name": "VanDusen Botanical Garden \u2014 Floral hall",
      "address": "Floral hall, Shaughnessy",
      "intersection": "Shaughnessy",
      "region": "south-van",
      "hours": "Dawn to dusk",
      "phone": "",
      "lat": 49.2386594319526,
      "lng": -123.12955764644596,
      "notes": "",
      "nearby_routes": [
        "017"
      ]
    },
    {
      "id": "washroom-van-95",
      "type": "washroom",
      "name": "Stanley Park \u2014 Prospect Point Picnic, fieldhouse",
      "address": "Prospect Point Picnic, fieldhouse",
      "intersection": "",
      "region": "downtown",
      "hours": "Dawn to Dusk",
      "phone": "",
      "lat": 49.31055002745758,
      "lng": -123.14838804055677,
      "notes": "Wheelchair accessible"
    },
    {
      "id": "washroom-van-96",
      "type": "washroom",
      "name": "Stanley Park \u2014 2nd Beach, fieldhouse",
      "address": "2nd Beach, fieldhouse",
      "intersection": "",
      "region": "downtown",
      "hours": "Dawn to Dusk",
      "phone": "",
      "lat": 49.295531100617225,
      "lng": -123.15058105411318,
      "notes": "Wheelchair accessible"
    },
    {
      "id": "washroom-van-97",
      "type": "washroom",
      "name": "Stanley Park \u2014 3rd Beach, fieldhouse",
      "address": "3rd Beach, fieldhouse",
      "intersection": "",
      "region": "downtown",
      "hours": "Dawn to Dusk",
      "phone": "",
      "lat": 49.303152991485184,
      "lng": -123.15593104827661,
      "notes": "Wheelchair accessible"
    },
    {
      "id": "washroom-van-98",
      "type": "washroom",
      "name": "Stanley Park \u2014 Brockton Oval",
      "address": "Brockton Oval",
      "intersection": "",
      "region": "downtown",
      "hours": "Dawn to Dusk",
      "phone": "",
      "lat": 49.29962596371685,
      "lng": -123.1260230030714,
      "notes": "Wheelchair accessible"
    },
    {
      "id": "washroom-van-99",
      "type": "washroom",
      "name": "Stanley Park \u2014 Pavilion",
      "address": "Pavilion",
      "intersection": "",
      "region": "downtown",
      "hours": "Dawn to Dusk",
      "phone": "",
      "lat": 49.29954903031622,
      "lng": -123.13405101599092,
      "notes": "Wheelchair accessible",
      "nearby_routes": [
        "019"
      ]
    },
    {
      "id": "washroom-van-100",
      "type": "washroom",
      "name": "Kingcrest Park \u2014 Playground",
      "address": "Playground, Kensington-Cedar Cottage",
      "intersection": "Kensington-Cedar Cottage",
      "region": "east-van",
      "hours": "Dawn to Dusk",
      "phone": "",
      "lat": 49.24731189166449,
      "lng": -123.07460205675565,
      "notes": "Wheelchair accessible",
      "nearby_routes": [
        "019",
        "022",
        "025",
        "N19"
      ]
    },
    {
      "id": "washroom-van-101",
      "type": "washroom",
      "name": "s??q?lxen?m ts'exwts'a?xwi7 (Rainbow) \u2014 872 Richards St",
      "address": "872 Richards St, Downtown",
      "intersection": "Downtown",
      "region": "downtown",
      "hours": "Dawn to Dusk",
      "phone": "",
      "lat": 49.278985860864495,
      "lng": -123.11893195123973,
      "notes": "Wheelchair accessible",
      "nearby_routes": [
        "004",
        "006",
        "007",
        "010",
        "014",
        "016",
        "017",
        "020",
        "050",
        "240",
        "241",
        "246",
        "247",
        "250",
        "253",
        "254",
        "257",
        "Canada Line",
        "N10",
        "N15",
        "N17",
        "N19",
        "N20",
        "N22",
        "N24",
        "N35",
        "N8",
        "N9"
      ]
    },
    {
      "id": "washroom-van-102",
      "type": "washroom",
      "name": "China Creek North Park \u2014 south-east corner",
      "address": "south-east corner, Mount Pleasant",
      "intersection": "Mount Pleasant",
      "region": "mount-pleasant",
      "hours": "Dawn to Dusk",
      "phone": "",
      "lat": 49.264494245003455,
      "lng": -123.08153102730606,
      "notes": "Wheelchair accessible",
      "nearby_routes": [
        "009",
        "022",
        "084",
        "099",
        "Millennium Line",
        "N9"
      ]
    },
    {
      "id": "washroom-van-103",
      "type": "washroom",
      "name": "Mccleery Golf Course \u2014 Unsure of exact location",
      "address": "Unsure of exact location, Kerrisdale",
      "intersection": "Kerrisdale",
      "region": "south-van",
      "hours": "Dawn to dusk",
      "phone": "",
      "lat": 49.2210231720367,
      "lng": -123.16787418477047,
      "notes": ""
    },
    {
      "id": "washroom-van-104",
      "type": "washroom",
      "name": " \u2014 Victory Square",
      "address": "Victory Square, Downtown",
      "intersection": "Downtown",
      "region": "downtown",
      "hours": "6:00am - Midnight",
      "phone": "",
      "lat": 49.28258498871338,
      "lng": -123.11011655435036,
      "notes": "",
      "nearby_routes": [
        "003",
        "004",
        "005",
        "006",
        "007",
        "008",
        "010",
        "014",
        "016",
        "017",
        "019",
        "020",
        "022",
        "023",
        "044",
        "050",
        "209",
        "210",
        "211",
        "214",
        "240",
        "241",
        "246",
        "247",
        "250",
        "253",
        "254",
        "257",
        "Canada Line",
        "Expo Line",
        "N10",
        "N15",
        "N17",
        "N19",
        "N20",
        "N22",
        "N24",
        "N35",
        "N8",
        "N9",
        "R5",
        "SeaBus",
        "WCE"
      ]
    },
    {
      "id": "washroom-van-105",
      "type": "washroom",
      "name": " \u2014 Main St and Terminal Ave",
      "address": "Main St and Terminal Ave, Strathcona",
      "intersection": "Strathcona",
      "region": "downtown",
      "hours": "6am - 10pm",
      "phone": "",
      "lat": 49.27313308782912,
      "lng": -123.09976255831502,
      "notes": "Wheelchair accessible",
      "nearby_routes": [
        "003",
        "008",
        "019",
        "022",
        "023",
        "084",
        "Expo Line",
        "N19",
        "N8"
      ]
    },
    {
      "id": "washroom-van-106",
      "type": "washroom",
      "name": " \u2014 Robson St and Richards St",
      "address": "Robson St and Richards St, Downtown",
      "intersection": "Downtown",
      "region": "downtown",
      "hours": "24hrs - 24hrs",
      "phone": "",
      "lat": 49.28031868986809,
      "lng": -123.11803855424998,
      "notes": "",
      "nearby_routes": [
        "002",
        "004",
        "005",
        "006",
        "007",
        "010",
        "014",
        "016",
        "017",
        "020",
        "044",
        "050",
        "240",
        "241",
        "246",
        "247",
        "250",
        "253",
        "254",
        "257",
        "Canada Line",
        "Expo Line",
        "N10",
        "N15",
        "N17",
        "N19",
        "N20",
        "N22",
        "N24",
        "N35",
        "N8",
        "N9"
      ]
    },
    {
      "id": "washroom-van-107",
      "type": "washroom",
      "name": "Brewers Park \u2014 North east corner fieldhouse",
      "address": "North east corner fieldhouse, Kensington-Cedar Cottage",
      "intersection": "Kensington-Cedar Cottage",
      "region": "east-van",
      "hours": "Dawn to Dusk",
      "phone": "",
      "lat": 49.247854989506635,
      "lng": -123.06542594968943,
      "notes": "",
      "nearby_routes": [
        "019",
        "020",
        "025",
        "N19",
        "N20"
      ]
    },
    {
      "id": "washroom-van-108",
      "type": "washroom",
      "name": "Garden Park \u2014 North east corner, fieldhouse",
      "address": "North east corner, fieldhouse, Grandview-Woodland",
      "intersection": "Grandview-Woodland",
      "region": "east-van",
      "hours": "Dawn to Dusk",
      "phone": "",
      "lat": 49.26828599758696,
      "lng": -123.05833399382524,
      "notes": "",
      "nearby_routes": [
        "007"
      ]
    },
    {
      "id": "washroom-van-109",
      "type": "washroom",
      "name": "Gordon Park \u2014 East side",
      "address": "East side, Victoria-Fraserview",
      "intersection": "Victoria-Fraserview",
      "region": "south-van",
      "hours": "Dawn to Dusk",
      "phone": "",
      "lat": 49.223870044041504,
      "lng": -123.0694999779781,
      "notes": "",
      "nearby_routes": [
        "020",
        "049",
        "430",
        "N20"
      ]
    },
    {
      "id": "washroom-van-110",
      "type": "washroom",
      "name": "Grandview Park \u2014 North East Corner",
      "address": "North East Corner, Grandview-Woodland",
      "intersection": "Grandview-Woodland",
      "region": "east-van",
      "hours": "Dawn to Dusk",
      "phone": "",
      "lat": 49.27376163002874,
      "lng": -123.06995444645655,
      "notes": "Wheelchair accessible",
      "nearby_routes": [
        "020",
        "N20"
      ]
    },
    {
      "id": "washroom-van-111",
      "type": "washroom",
      "name": "Grays Park \u2014 Centre west by parking lot",
      "address": "Centre west by parking lot, Kensington-Cedar Cottage",
      "intersection": "Kensington-Cedar Cottage",
      "region": "east-van",
      "hours": "Dawn to Dusk",
      "phone": "",
      "lat": 49.2409609289076,
      "lng": -123.08522025523621,
      "notes": "",
      "nearby_routes": [
        "008",
        "033",
        "N8"
      ]
    },
    {
      "id": "washroom-van-112",
      "type": "washroom",
      "name": "Hadden Park \u2014 West, caretaker house (actually in Kits)",
      "address": "West, caretaker house (actually in Kits), Kitsilano",
      "intersection": "Kitsilano",
      "region": "kitsilano",
      "hours": "Dawn to Dusk",
      "phone": "",
      "lat": 49.27746099219153,
      "lng": -123.15030998197221,
      "notes": "Wheelchair accessible"
    },
    {
      "id": "washroom-van-113",
      "type": "washroom",
      "name": "MacLean Park \u2014 North west corner, fieldhouse",
      "address": "North west corner, fieldhouse, Strathcona",
      "intersection": "Strathcona",
      "region": "downtown",
      "hours": "Dawn to Dusk",
      "phone": "",
      "lat": 49.27900702156872,
      "lng": -123.08936604005854,
      "notes": "",
      "nearby_routes": [
        "004",
        "007",
        "014",
        "016",
        "020",
        "022",
        "209",
        "210",
        "211",
        "214",
        "N20",
        "N35"
      ]
    },
    {
      "id": "washroom-van-114",
      "type": "washroom",
      "name": "Maple Grove Park \u2014 Central, field house",
      "address": "Central, field house, Kerrisdale",
      "intersection": "Kerrisdale",
      "region": "south-van",
      "hours": "Dawn to Dusk",
      "phone": "",
      "lat": 49.223384020699434,
      "lng": -123.15958297476698,
      "notes": "Wheelchair accessible",
      "nearby_routes": [
        "016",
        "049"
      ]
    },
    {
      "id": "washroom-van-115",
      "type": "washroom",
      "name": "Prince Edward Park \u2014 Sout east corner, fieldhouse",
      "address": "Sout east corner, fieldhouse, Riley Park",
      "intersection": "Riley Park",
      "region": "mount-pleasant",
      "hours": "Dawn to Dusk",
      "phone": "",
      "lat": 49.25119097086864,
      "lng": -123.09705699407517,
      "notes": "",
      "nearby_routes": [
        "003",
        "025"
      ]
    },
    {
      "id": "washroom-van-116",
      "type": "washroom",
      "name": "Ross Park \u2014 South west corner, fieldhouse",
      "address": "South west corner, fieldhouse, Sunset",
      "intersection": "Sunset",
      "region": "south-van",
      "hours": "Dawn to Dusk",
      "phone": "",
      "lat": 49.21669998012449,
      "lng": -123.08279803559799,
      "notes": "Wheelchair accessible",
      "nearby_routes": [
        "022",
        "430"
      ]
    },
    {
      "id": "washroom-van-117",
      "type": "washroom",
      "name": "Slocan Park \u2014 North side",
      "address": "North side, Renfrew-Collingwood",
      "intersection": "Renfrew-Collingwood",
      "region": "east-van",
      "hours": "Dawn to Dusk",
      "phone": "",
      "lat": 49.24443797709919,
      "lng": -123.04795201778296,
      "notes": "Wheelchair accessible",
      "nearby_routes": [
        "016",
        "026",
        "029",
        "033",
        "Expo Line"
      ]
    },
    {
      "id": "washroom-van-118",
      "type": "washroom",
      "name": "Tatlow Park \u2014 South, field house",
      "address": "South, field house, Kitsilano",
      "intersection": "Kitsilano",
      "region": "kitsilano",
      "hours": "Dawn to Dusk",
      "phone": "",
      "lat": 49.26947601104013,
      "lng": -123.1695119500403,
      "notes": "",
      "nearby_routes": [
        "002",
        "004",
        "007",
        "014",
        "044",
        "084",
        "N22"
      ]
    },
    {
      "id": "washroom-van-119",
      "type": "washroom",
      "name": "West Point Grey Park \u2014 Centre",
      "address": "Centre, West Point Grey",
      "intersection": "West Point Grey",
      "region": "west-point-grey",
      "hours": "Dawn to Dusk",
      "phone": "",
      "lat": 49.26654154245594,
      "lng": -123.20457956432331,
      "notes": "",
      "nearby_routes": [
        "004",
        "009",
        "014",
        "044",
        "084",
        "099",
        "N17"
      ]
    },
    {
      "id": "washroom-van-120",
      "type": "washroom",
      "name": "Champlain Heights \u2014 3350 Maquinna Drive",
      "address": "3350 Maquinna Drive, Killarney",
      "intersection": "Killarney",
      "region": "south-van",
      "hours": "as per CC operating hours",
      "phone": "",
      "lat": 49.214448061453886,
      "lng": -123.03206634777003,
      "notes": "",
      "nearby_routes": [
        "026",
        "031"
      ]
    },
    {
      "id": "washroom-van-121",
      "type": "washroom",
      "name": "Creekside \u2014 1 Athletes Way",
      "address": "1 Athletes Way, Mount Pleasant",
      "intersection": "Mount Pleasant",
      "region": "mount-pleasant",
      "hours": "as per CC operating hours",
      "phone": "",
      "lat": 49.27178699895438,
      "lng": -123.10558600026903,
      "notes": "",
      "nearby_routes": [
        "003",
        "008",
        "019",
        "022",
        "023",
        "084",
        "Expo Line",
        "N19",
        "N8"
      ]
    },
    {
      "id": "washroom-van-122",
      "type": "washroom",
      "name": "Dunbar \u2014 4747 Dunbar St",
      "address": "4747 Dunbar St, Dunbar-Southlands",
      "intersection": "Dunbar-Southlands",
      "region": "south-van",
      "hours": "as per CC operating hours",
      "phone": "",
      "lat": 49.24281542583886,
      "lng": -123.18825196095462,
      "notes": "",
      "nearby_routes": [
        "007"
      ]
    },
    {
      "id": "washroom-van-123",
      "type": "washroom",
      "name": "False Creek \u2014 1318 Cartwright St",
      "address": "1318 Cartwright St, Fairview",
      "intersection": "Fairview",
      "region": "fairview",
      "hours": "as per CC operating hours",
      "phone": "",
      "lat": 49.269397069509424,
      "lng": -123.13402027146624,
      "notes": "",
      "nearby_routes": [
        "004",
        "007",
        "010",
        "014",
        "016",
        "050",
        "084",
        "N10",
        "N17",
        "N9"
      ]
    },
    {
      "id": "washroom-van-124",
      "type": "washroom",
      "name": "Gathering Place \u2014 609 Helmcken St",
      "address": "609 Helmcken St, Downtown",
      "intersection": "Downtown",
      "region": "downtown",
      "hours": "as per CC operating hours",
      "phone": "",
      "lat": 49.27798999137717,
      "lng": -123.12348216441738,
      "notes": "",
      "nearby_routes": [
        "002",
        "004",
        "006",
        "007",
        "010",
        "014",
        "016",
        "017",
        "020",
        "023",
        "044",
        "050",
        "Canada Line",
        "N10",
        "N15",
        "N17",
        "N22",
        "N9"
      ]
    },
    {
      "id": "washroom-van-125",
      "type": "washroom",
      "name": "Marpole-Oakridge \u2014 990 W 59th Av",
      "address": "990 W 59th Av, Marpole",
      "intersection": "Marpole",
      "region": "south-van",
      "hours": "as per CC operating hours",
      "phone": "",
      "lat": 49.21677185719873,
      "lng": -123.1286795021491,
      "notes": "",
      "nearby_routes": [
        "017"
      ]
    },
    {
      "id": "washroom-van-126",
      "type": "washroom",
      "name": "Sunset \u2014 6810 Main St",
      "address": "6810 Main St, Sunset",
      "intersection": "Sunset",
      "region": "south-van",
      "hours": "as per CC operating hours",
      "phone": "",
      "lat": 49.22286659360525,
      "lng": -123.10061043466422,
      "notes": "",
      "nearby_routes": [
        "003",
        "049"
      ]
    },
    {
      "id": "washroom-van-127",
      "type": "washroom",
      "name": "Jericho Beach Park \u2014 Concession/fieldhouse",
      "address": "Concession/fieldhouse, West Point Grey",
      "intersection": "West Point Grey",
      "region": "kitsilano",
      "hours": "Dawn to Dusk",
      "phone": "",
      "lat": 49.27158002043859,
      "lng": -123.19165896021171,
      "notes": "Wheelchair accessible",
      "nearby_routes": [
        "004"
      ]
    },
    {
      "id": "washroom-van-128",
      "type": "washroom",
      "name": "Kitsilano Beach Park \u2014 Kitsilano Showboat concession",
      "address": "Kitsilano Showboat concession, Kitsilano",
      "intersection": "Kitsilano",
      "region": "kitsilano",
      "hours": "Dawn to Dusk",
      "phone": "",
      "lat": 49.273014033025405,
      "lng": -123.15754296825496,
      "notes": "Wheelchair accessible",
      "nearby_routes": [
        "002",
        "N22"
      ]
    },
    {
      "id": "washroom-van-129",
      "type": "washroom",
      "name": "Kitsilano Beach Park \u2014 Lifeguard station",
      "address": "Lifeguard station, Kitsilano",
      "intersection": "Kitsilano",
      "region": "kitsilano",
      "hours": "Dawn to Dusk",
      "phone": "",
      "lat": 49.274471992371346,
      "lng": -123.15370297407691,
      "notes": "Wheelchair accessible",
      "nearby_routes": [
        "002",
        "N22"
      ]
    },
    {
      "id": "washroom-van-130",
      "type": "washroom",
      "name": "Queen Elizabeth Park \u2014 Under \"Seasons\"",
      "address": "Under \"Seasons\", Riley Park",
      "intersection": "Riley Park",
      "region": "mount-pleasant",
      "hours": "7:30 am - 9:00 pm",
      "phone": "",
      "lat": 49.24182883201732,
      "lng": -123.11176444175848,
      "notes": "",
      "nearby_routes": [
        "015",
        "033",
        "N15"
      ]
    },
    {
      "id": "washroom-van-131",
      "type": "washroom",
      "name": "Rupert Park \u2014 South side, fieldhouse",
      "address": "South side, fieldhouse, Hastings-Sunrise",
      "intersection": "Hastings-Sunrise",
      "region": "east-van",
      "hours": "Dawn to Dusk",
      "phone": "",
      "lat": 49.270135003328,
      "lng": -123.03060498029191,
      "notes": "Wheelchair accessible",
      "nearby_routes": [
        "027"
      ]
    },
    {
      "id": "washroom-van-132",
      "type": "washroom",
      "name": "VanDusen Botanical Garden \u2014 At front entrance",
      "address": "At front entrance, Shaughnessy",
      "intersection": "Shaughnessy",
      "region": "south-van",
      "hours": "Dawn to dusk",
      "phone": "",
      "lat": 49.23851044914224,
      "lng": -123.12863834069158,
      "notes": "",
      "nearby_routes": [
        "017",
        "041",
        "R4"
      ]
    },
    {
      "id": "washroom-van-133",
      "type": "washroom",
      "name": "Stanley Park \u2014 Pitch & Putt Golf Course",
      "address": "Pitch & Putt Golf Course",
      "intersection": "",
      "region": "downtown",
      "hours": "Dawn to Dusk",
      "phone": "",
      "lat": 49.29303503648441,
      "lng": -123.14659902498154,
      "notes": "Wheelchair accessible"
    },
    {
      "id": "washroom-van-134",
      "type": "washroom",
      "name": "Stanley Park \u2014 SP Brewing",
      "address": "SP Brewing",
      "intersection": "",
      "region": "downtown",
      "hours": "Dawn to Dusk",
      "phone": "",
      "lat": 49.292293020819386,
      "lng": -123.14658004093586,
      "notes": "Wheelchair accessible"
    },
    {
      "id": "washroom-van-135",
      "type": "washroom",
      "name": "Stanley Park \u2014 Lumberman's Arch",
      "address": "Lumberman's Arch",
      "intersection": "",
      "region": "downtown",
      "hours": "Dawn to Dusk",
      "phone": "",
      "lat": 49.302925983765704,
      "lng": -123.13070797861171,
      "notes": "Wheelchair accessible",
      "nearby_routes": [
        "019"
      ]
    },
    {
      "id": "washroom-van-136",
      "type": "washroom",
      "name": "Stanley Park \u2014 Aquarium plaza",
      "address": "Aquarium plaza",
      "intersection": "",
      "region": "downtown",
      "hours": "Dawn to Dusk",
      "phone": "",
      "lat": 49.29986799505929,
      "lng": -123.13070000527493,
      "notes": "Wheelchair accessible",
      "nearby_routes": [
        "019"
      ]
    },
    {
      "id": "washroom-van-137",
      "type": "washroom",
      "name": "Stanley Park \u2014 Chilco - Lost Lagoon",
      "address": "Chilco - Lost Lagoon",
      "intersection": "",
      "region": "downtown",
      "hours": "Dawn to Dusk",
      "phone": "",
      "lat": 49.29392203706443,
      "lng": -123.13859102966137,
      "notes": "Wheelchair accessible",
      "nearby_routes": [
        "005",
        "019",
        "044",
        "240",
        "241",
        "246",
        "247",
        "250",
        "253",
        "254",
        "257",
        "N24"
      ]
    },
    {
      "id": "washroom-van-138",
      "type": "washroom",
      "name": "Sunset Beach \u2014 Vancouver Aquatic Center",
      "address": "Vancouver Aquatic Center, West End",
      "intersection": "West End",
      "region": "downtown",
      "hours": "Dawn to dusk",
      "phone": "",
      "lat": 49.27677906039137,
      "lng": -123.13542456694313,
      "notes": "",
      "nearby_routes": [
        "002",
        "006",
        "023",
        "044",
        "N22"
      ]
    },
    {
      "id": "washroom-van-139",
      "type": "washroom",
      "name": "Empire Fields - Hastings Park \u2014 West Side",
      "address": "West Side, Hastings-Sunrise",
      "intersection": "Hastings-Sunrise",
      "region": "east-van",
      "hours": "Dawn to dusk",
      "phone": "",
      "lat": 49.28250644914754,
      "lng": -123.03430857894679,
      "notes": "",
      "nearby_routes": [
        "014",
        "028",
        "130",
        "N35"
      ]
    },
    {
      "id": "washroom-van-140",
      "type": "washroom",
      "name": "Spanish Banks - Extension \u2014 West Parking Lot",
      "address": "West Parking Lot",
      "intersection": "",
      "region": "downtown",
      "hours": "Dawn to dusk",
      "phone": "",
      "lat": 49.2785519050673,
      "lng": -123.23169795755233,
      "notes": ""
    },
    {
      "id": "washroom-van-141",
      "type": "washroom",
      "name": "Riley Park \u2014 Fieldhouse",
      "address": "Fieldhouse, Riley Park",
      "intersection": "Riley Park",
      "region": "mount-pleasant",
      "hours": "Dawn to Dusk",
      "phone": "",
      "lat": 49.24203735141205,
      "lng": -123.10360324008157,
      "notes": "",
      "nearby_routes": [
        "003",
        "033"
      ]
    },
    {
      "id": "washroom-van-142",
      "type": "washroom",
      "name": "CRAB Park at Portside \u2014 101 E Waterfront Rd",
      "address": "101 E Waterfront Rd, Downtown",
      "intersection": "Downtown",
      "region": "downtown",
      "hours": "24 hrs",
      "phone": "",
      "lat": 49.284587647061095,
      "lng": -123.10183295751148,
      "notes": "Wheelchair accessible",
      "nearby_routes": [
        "003",
        "004",
        "007",
        "008",
        "014",
        "016",
        "019",
        "020",
        "022",
        "050",
        "209",
        "210",
        "211",
        "214",
        "N19",
        "N20",
        "N35",
        "N8",
        "R5"
      ]
    },
    {
      "id": "washroom-van-143",
      "type": "washroom",
      "name": "Langara Golf Course \u2014 Exterior of Building",
      "address": "Exterior of Building, Oakridge",
      "intersection": "Oakridge",
      "region": "south-van",
      "hours": "Dawn to dusk",
      "phone": "",
      "lat": 49.22388735761178,
      "lng": -123.1125147594454,
      "notes": "",
      "nearby_routes": [
        "015",
        "049",
        "Canada Line",
        "N15"
      ]
    },
    {
      "id": "washroom-van-144",
      "type": "washroom",
      "name": " \u2014 Bute St and Davie St",
      "address": "Bute St and Davie St, West End",
      "intersection": "West End",
      "region": "downtown",
      "hours": "24hrs - 24hrs",
      "phone": "",
      "lat": 49.28184849173398,
      "lng": -123.1331255518689,
      "notes": "",
      "nearby_routes": [
        "002",
        "006",
        "023",
        "044",
        "N22"
      ]
    },
    {
      "id": "washroom-van-145",
      "type": "washroom",
      "name": " \u2014 Nelson St and Howe St",
      "address": "Nelson St and Howe St, Downtown",
      "intersection": "Downtown",
      "region": "downtown",
      "hours": "24hrs - 24hrs",
      "phone": "",
      "lat": 49.279690790811784,
      "lng": -123.12350055300317,
      "notes": "",
      "nearby_routes": [
        "002",
        "004",
        "005",
        "006",
        "007",
        "010",
        "014",
        "016",
        "017",
        "020",
        "044",
        "050",
        "240",
        "241",
        "246",
        "247",
        "250",
        "253",
        "254",
        "257",
        "Canada Line",
        "N10",
        "N15",
        "N17",
        "N19",
        "N20",
        "N22",
        "N24",
        "N35",
        "N8",
        "N9"
      ]
    },
    {
      "id": "washroom-van-146",
      "type": "washroom",
      "name": " \u2014 Vancouver Art Gallery",
      "address": "Vancouver Art Gallery, Downtown",
      "intersection": "Downtown",
      "region": "downtown",
      "hours": "6am - 10pm",
      "phone": "",
      "lat": 49.28295538960404,
      "lng": -123.11984855327826,
      "notes": "Wheelchair accessible",
      "nearby_routes": [
        "002",
        "004",
        "005",
        "007",
        "010",
        "014",
        "016",
        "017",
        "019",
        "020",
        "022",
        "044",
        "050",
        "209",
        "210",
        "211",
        "214",
        "240",
        "241",
        "246",
        "247",
        "250",
        "253",
        "254",
        "257",
        "Canada Line",
        "Expo Line",
        "N10",
        "N15",
        "N17",
        "N19",
        "N20",
        "N22",
        "N24",
        "N35",
        "N8",
        "N9",
        "R5"
      ]
    },
    {
      "id": "meal-van-2",
      "type": "meal",
      "name": "The Kettle Society - Meal Program",
      "address": "1725 Venables St, Vancouver, BC",
      "intersection": "Grandview-Woodland",
      "region": "east-van",
      "hours": "Daily @ 11:30am Must sign up in morning prior to meal service",
      "phone": "",
      "lat": 49.276925,
      "lng": -123.070065,
      "notes": "Low cost. Wheelchair accessible; Takeout available",
      "nearby_routes": [
        "014",
        "016",
        "020",
        "N20",
        "N35",
        "R5"
      ]
    },
    {
      "id": "meal-van-3",
      "type": "meal",
      "name": "Japanese Community Volunteers - Meals on Wheels",
      "address": "42 W 8th Ave, Vancouver, BC",
      "intersection": "Mount Pleasant",
      "region": "mount-pleasant",
      "hours": "Japanese-style bento meal delivery service for home-bound seniors, including caregivers and people with illness or injury",
      "phone": "(604) 687-2172",
      "lat": 49.263553,
      "lng": -123.105955,
      "notes": "Low cost. ",
      "nearby_routes": [
        "003",
        "008",
        "009",
        "019",
        "099",
        "N19",
        "N8",
        "N9"
      ]
    },
    {
      "id": "meal-van-4",
      "type": "meal",
      "name": "Bryn's Neighbourhood Table",
      "address": "8680 Hudson St, Vancouver, BC",
      "intersection": "Marpole",
      "region": "south-van",
      "hours": "Free, sit-down dinner every Thursday 6-7pm at St",
      "phone": "",
      "lat": 49.207246,
      "lng": -123.134299,
      "notes": "Free. Wheelchair accessible; Takeout available",
      "nearby_routes": [
        "010",
        "017",
        "100",
        "N10"
      ]
    },
    {
      "id": "meal-van-5",
      "type": "meal",
      "name": "Christ Church Cathedral - Maundy Cafe",
      "address": "690 Burrard St, Vancouver, BC",
      "intersection": "Downtown",
      "region": "downtown",
      "hours": "Mon, Thurs, Fri from 11:30am-12:30pm",
      "phone": "",
      "lat": 49.284484,
      "lng": -123.120359,
      "notes": "Free. Wheelchair accessible; Takeout available",
      "nearby_routes": [
        "002",
        "004",
        "005",
        "007",
        "010",
        "014",
        "016",
        "017",
        "019",
        "020",
        "022",
        "044",
        "050",
        "209",
        "210",
        "211",
        "214",
        "240",
        "241",
        "246",
        "247",
        "250",
        "253",
        "254",
        "257",
        "Canada Line",
        "Expo Line",
        "N10",
        "N15",
        "N17",
        "N19",
        "N20",
        "N22",
        "N24",
        "N35",
        "N8",
        "N9",
        "R5"
      ]
    },
    {
      "id": "meal-van-6",
      "type": "meal",
      "name": "Care BC - Western and Chinese Meals on Wheels",
      "address": "3077 Granville St, Vancouver, BC",
      "intersection": "Fairview",
      "region": "fairview",
      "hours": "Western styled meals delivered weekdays 10:30 am-1pm, priced from $6",
      "phone": "(604) 732-7638",
      "lat": 49.258422,
      "lng": -123.139174,
      "notes": "Low cost. ",
      "nearby_routes": [
        "009",
        "010",
        "016",
        "033",
        "N10"
      ]
    },
    {
      "id": "meal-van-7",
      "type": "meal",
      "name": "Evelyne Saller Centre - Low Cost Meals",
      "address": "404 Alexander St, Vancouver, BC",
      "intersection": "Strathcona",
      "region": "downtown",
      "hours": "Breakfast 10am-12pm, Lunch 11:30am-3pm, Dinner 3-5:50pm",
      "phone": "",
      "lat": 49.283977,
      "lng": -123.094983,
      "notes": "$2.00. Wheelchair accessible",
      "nearby_routes": [
        "003",
        "004",
        "007",
        "008",
        "014",
        "016",
        "020",
        "022",
        "209",
        "210",
        "211",
        "214",
        "N20",
        "N35",
        "N8",
        "R5"
      ]
    },
    {
      "id": "meal-van-8",
      "type": "meal",
      "name": "A Loving Spoonful - Meals and groceries",
      "address": "1449 Powell St, Vancouver, BC",
      "intersection": "Grandview-Woodland",
      "region": "east-van",
      "hours": "Eligible individuals and families can be referred by a Doctor, Nurse, Dietitian, Social Worker, or self-refer",
      "phone": "",
      "lat": 49.28329,
      "lng": -123.07419,
      "notes": "Free. ",
      "nearby_routes": [
        "004",
        "007",
        "014",
        "016",
        "020",
        "209",
        "210",
        "211",
        "214",
        "N20",
        "N35",
        "R5"
      ]
    },
    {
      "id": "meal-van-9",
      "type": "meal",
      "name": "Sheway - Lunches",
      "address": "533 E Hastings St, Vancouver, BC",
      "intersection": "Strathcona",
      "region": "downtown",
      "hours": "Mon-Fri 11:30am-1:30pm",
      "phone": "",
      "lat": 49.281501,
      "lng": -123.092398,
      "notes": "Free. Wheelchair accessible",
      "nearby_routes": [
        "004",
        "007",
        "014",
        "016",
        "020",
        "022",
        "209",
        "210",
        "211",
        "214",
        "N20",
        "N35",
        "R5"
      ]
    },
    {
      "id": "meal-van-10",
      "type": "meal",
      "name": "Nourishing Neighbours",
      "address": "",
      "intersection": "",
      "region": "downtown",
      "hours": "Free community dinner on the 2nd Monday of every month at 6PM in our Salons",
      "phone": "",
      "lat": null,
      "lng": null,
      "notes": "Free. Wheelchair accessible"
    },
    {
      "id": "meal-van-14",
      "type": "meal",
      "name": "DUDES Club",
      "address": "606 Powell St, Vancouver, BC",
      "intersection": "Strathcona",
      "region": "downtown",
      "hours": "Th at 4pm",
      "phone": "",
      "lat": 49.283002,
      "lng": -123.091232,
      "notes": "Free. Wheelchair accessible",
      "nearby_routes": [
        "004",
        "007",
        "014",
        "016",
        "020",
        "209",
        "210",
        "211",
        "214",
        "N20",
        "N35"
      ]
    },
    {
      "id": "meal-van-15",
      "type": "meal",
      "name": "Vancouver Second Mile Society - Meal Program",
      "address": "509 E Hastings St, Vancouver, BC",
      "intersection": "Strathcona",
      "region": "downtown",
      "hours": "Call for hours",
      "phone": "(604) 254-2194",
      "lat": 49.281283,
      "lng": -123.092787,
      "notes": "$4.00. Wheelchair accessible; Takeout available",
      "nearby_routes": [
        "004",
        "007",
        "014",
        "016",
        "020",
        "022",
        "209",
        "210",
        "211",
        "214",
        "N20",
        "N35",
        "R5"
      ]
    },
    {
      "id": "meal-van-18",
      "type": "meal",
      "name": "Aboriginal Friendship Centre-Elder Meals on Wheels",
      "address": "1607 E Hastings St, Vancouver, BC",
      "intersection": "Grandview-Woodland",
      "region": "east-van",
      "hours": "An Indigenous-operated program",
      "phone": "(604) 251-4844",
      "lat": 49.281562,
      "lng": -123.071999,
      "notes": "Free. ",
      "nearby_routes": [
        "004",
        "007",
        "014",
        "016",
        "020",
        "209",
        "210",
        "211",
        "214",
        "N20",
        "N35",
        "R5"
      ]
    },
    {
      "id": "meal-van-20",
      "type": "meal",
      "name": "First United \u2013 Community Meals",
      "address": "",
      "intersection": "",
      "region": "downtown",
      "hours": "Northeast corner of Hastings St and Gore St, Vancouver\r\nMonday \u2013 Friday, service begins around noon (not served on income assistance days or statutory holidays)\r\nFree, hearty lunch served weekdays via",
      "phone": "",
      "lat": null,
      "lng": null,
      "notes": "Free. Wheelchair accessible; Takeout available"
    },
    {
      "id": "meal-van-23",
      "type": "meal",
      "name": "Kitsilano Community Centre Breakfast Program",
      "address": "2690 Larch St, Vancouver, BC",
      "intersection": "Kitsilano",
      "region": "kitsilano",
      "hours": "Biweekly: 2nd and 4th Saturday, 7:30am-9am",
      "phone": "",
      "lat": 49.262056,
      "lng": -123.160105,
      "notes": "Free. ",
      "nearby_routes": [
        "009",
        "099",
        "N17"
      ]
    },
    {
      "id": "meal-van-27",
      "type": "meal",
      "name": "Directions Youth Services - Meal and Snacks",
      "address": "1138 Burrard St, Vancouver, BC",
      "intersection": "Downtown",
      "region": "downtown",
      "hours": "Open for snacks 24/7; Meal daily from 8-9 pm",
      "phone": "(604) 633-1472",
      "lat": 49.279589,
      "lng": -123.12829,
      "notes": "Free. Takeout available",
      "nearby_routes": [
        "002",
        "004",
        "006",
        "007",
        "010",
        "014",
        "016",
        "023",
        "044",
        "050",
        "N10",
        "N17",
        "N22",
        "N9"
      ]
    },
    {
      "id": "meal-van-29",
      "type": "meal",
      "name": "Care BC - Chinese Meals on Wheels",
      "address": "3077 Granville St, Vancouver, BC",
      "intersection": "Fairview",
      "region": "fairview",
      "hours": "Meal delivery service for home-bound people including seniors, caregivers, people with illness or injury",
      "phone": "(604) 733-6615",
      "lat": 49.258422,
      "lng": -123.139174,
      "notes": "$9.95. ",
      "nearby_routes": [
        "009",
        "010",
        "016",
        "033",
        "N10"
      ]
    },
    {
      "id": "meal-van-30",
      "type": "meal",
      "name": "Jewish Family Services - JFS Kitchen",
      "address": "54 E 3rd Ave, Vancouver, BC",
      "intersection": "Mount Pleasant",
      "region": "mount-pleasant",
      "hours": "Provides food support through a food bank, meal delivery program, and Jewish holiday assistance",
      "phone": "",
      "lat": 49.268006,
      "lng": -123.103369,
      "notes": "Free. Wheelchair accessible",
      "nearby_routes": [
        "003",
        "008",
        "019",
        "084",
        "N19",
        "N8"
      ]
    },
    {
      "id": "meal-van-36",
      "type": "meal",
      "name": "Mount Pleasant N'hood House - Seniors Lunch",
      "address": "800 E Broadway, Vancouver, BC",
      "intersection": "Mount Pleasant",
      "region": "mount-pleasant",
      "hours": "Come and share a meal with your neighbours at our Seniors Lunch on Tuesdays from 12-1PM",
      "phone": "",
      "lat": 49.262154,
      "lng": -123.086769,
      "notes": "Low cost. Wheelchair accessible",
      "nearby_routes": [
        "008",
        "009",
        "084",
        "099",
        "N8",
        "N9"
      ]
    },
    {
      "id": "meal-van-37",
      "type": "meal",
      "name": "Mount Pleasant N'hood House",
      "address": "",
      "intersection": "",
      "region": "downtown",
      "hours": "Come and share a meal with your neighbours at our Community Lunch every second Friday from 11:45AM-1PM",
      "phone": "(604) 879-8208",
      "lat": null,
      "lng": null,
      "notes": "Low cost. Wheelchair accessible"
    },
    {
      "id": "meal-van-39",
      "type": "meal",
      "name": "The Dugout - Hot Breakfast",
      "address": "57 E Hastings St, Vancouver, BC",
      "intersection": "Downtown",
      "region": "downtown",
      "hours": "Daily hot meal at 10:30am",
      "phone": "",
      "lat": 49.281478,
      "lng": -123.103155,
      "notes": "Free. Takeout available",
      "nearby_routes": [
        "003",
        "004",
        "007",
        "008",
        "014",
        "016",
        "019",
        "020",
        "022",
        "023",
        "050",
        "209",
        "210",
        "211",
        "214",
        "Expo Line",
        "N19",
        "N20",
        "N35",
        "N8",
        "R5"
      ]
    },
    {
      "id": "meal-van-40",
      "type": "meal",
      "name": "Gathering Place Community Centre - Meals",
      "address": "609 Helmcken St, Vancouver, BC",
      "intersection": "Downtown",
      "region": "downtown",
      "hours": "Meals every day of the week",
      "phone": "",
      "lat": 49.277708,
      "lng": -123.123799,
      "notes": "Low cost. Wheelchair accessible; Takeout available",
      "nearby_routes": [
        "002",
        "004",
        "006",
        "007",
        "010",
        "014",
        "016",
        "017",
        "023",
        "044",
        "050",
        "Canada Line",
        "N10",
        "N15",
        "N17",
        "N22",
        "N9"
      ]
    },
    {
      "id": "meal-van-41",
      "type": "meal",
      "name": "Cityview Church - Open Table",
      "address": "4370 Sophia St, Vancouver, BC",
      "intersection": "Riley Park",
      "region": "mount-pleasant",
      "hours": "Thurs at 12pm",
      "phone": "",
      "lat": 49.245928,
      "lng": -123.098691,
      "notes": "Free. Wheelchair accessible; Takeout available",
      "nearby_routes": [
        "003",
        "025"
      ]
    },
    {
      "id": "meal-van-42",
      "type": "meal",
      "name": "DTES Neighbourhood House - Meal Program",
      "address": "573 E Hastings St, Vancouver, BC",
      "intersection": "Strathcona",
      "region": "downtown",
      "hours": "Community drop-in: Oatmeal on Mon and Wed at 10am-12pm and hot lunch on Wed at 12:30pm-2pm (open to everyone)",
      "phone": "",
      "lat": 49.281262,
      "lng": -123.091816,
      "notes": "Free. Wheelchair accessible; Takeout available",
      "nearby_routes": [
        "004",
        "007",
        "014",
        "016",
        "020",
        "022",
        "209",
        "210",
        "211",
        "214",
        "N20",
        "N35",
        "R5"
      ]
    },
    {
      "id": "meal-van-43",
      "type": "meal",
      "name": "The Door is Open - Meal Program",
      "address": "255 Dunlevy Ave, Vancouver, BC",
      "intersection": "Strathcona",
      "region": "downtown",
      "hours": "Anyone on Mon, Tues, Thurs, Fri, Sat at 11am and Sun at 11:30am",
      "phone": "",
      "lat": 49.282407,
      "lng": -123.095626,
      "notes": "Free. ",
      "nearby_routes": [
        "003",
        "004",
        "007",
        "008",
        "014",
        "016",
        "019",
        "020",
        "022",
        "209",
        "210",
        "211",
        "214",
        "N19",
        "N20",
        "N35",
        "N8",
        "R5"
      ]
    },
    {
      "id": "meal-van-44",
      "type": "meal",
      "name": "Salvation Army - Harbour Light, Meal Program",
      "address": "119 E Cordova St, Vancouver, BC",
      "intersection": "Downtown",
      "region": "downtown",
      "hours": "Mon-Fri at 11am; Sat 4pm",
      "phone": "",
      "lat": 49.282569,
      "lng": -123.100962,
      "notes": "Free. Wheelchair accessible",
      "nearby_routes": [
        "003",
        "004",
        "007",
        "008",
        "014",
        "016",
        "019",
        "020",
        "022",
        "023",
        "050",
        "209",
        "210",
        "211",
        "214",
        "N19",
        "N20",
        "N35",
        "N8",
        "R5"
      ]
    },
    {
      "id": "meal-van-45",
      "type": "meal",
      "name": "Lookout Society's Powell St. Getaway - Snacks",
      "address": "450 E Hastings St, Vancouver, BC",
      "intersection": "Strathcona",
      "region": "downtown",
      "hours": "Daily at 10:30am, 1pm, and 4pm",
      "phone": "",
      "lat": 49.280912,
      "lng": -123.094276,
      "notes": "Free. Wheelchair accessible; Takeout available",
      "nearby_routes": [
        "003",
        "004",
        "007",
        "008",
        "014",
        "016",
        "019",
        "020",
        "022",
        "209",
        "210",
        "211",
        "214",
        "N19",
        "N20",
        "N35",
        "N8",
        "R5"
      ]
    },
    {
      "id": "meal-van-46",
      "type": "meal",
      "name": "DTES Women's Centre - Drop In - Takeout Meals",
      "address": "302 Columbia St, Vancouver, BC",
      "intersection": "Downtown",
      "region": "downtown",
      "hours": "Daily (except Wed) 10-11am, 12-2pm",
      "phone": "",
      "lat": 49.281867,
      "lng": -123.102196,
      "notes": "Free. Wheelchair accessible; Takeout available",
      "nearby_routes": [
        "003",
        "004",
        "007",
        "008",
        "014",
        "016",
        "019",
        "020",
        "022",
        "023",
        "050",
        "209",
        "210",
        "211",
        "214",
        "N19",
        "N20",
        "N35",
        "N8",
        "R5"
      ]
    },
    {
      "id": "meal-van-48",
      "type": "meal",
      "name": "Covenant House - Meal Program",
      "address": "1302 Seymour St, Vancouver, BC",
      "intersection": "Downtown",
      "region": "downtown",
      "hours": "Hot breakfast M-F 9am-12pm; Hot meal or pizza M-F 3:30-5pm",
      "phone": "",
      "lat": 49.275159,
      "lng": -123.126681,
      "notes": "Free. Wheelchair accessible",
      "nearby_routes": [
        "002",
        "004",
        "006",
        "007",
        "010",
        "014",
        "016",
        "023",
        "044",
        "050",
        "Canada Line",
        "N10",
        "N17",
        "N22",
        "N9"
      ]
    },
    {
      "id": "meal-van-52",
      "type": "meal",
      "name": "St Mary's Kerrisdale - Community Meal",
      "address": "2490 W 37th Ave, Vancouver, BC",
      "intersection": "Arbutus-Ridge",
      "region": "kitsilano",
      "hours": "Every Tuesday, 11:30AM - 12:30PM",
      "phone": "",
      "lat": 49.238121,
      "lng": -123.162091,
      "notes": "Free. Wheelchair accessible",
      "nearby_routes": [
        "016",
        "041"
      ]
    },
    {
      "id": "meal-van-53",
      "type": "meal",
      "name": "Gospel Mission Society - Food Program",
      "address": "255 Dunlevy Ave, Vancouver, BC",
      "intersection": "Strathcona",
      "region": "downtown",
      "hours": "Serving sandwiches or hot food Wed 7-8pm",
      "phone": "",
      "lat": 49.282399,
      "lng": -123.09564,
      "notes": "Free. Wheelchair accessible; Takeout available",
      "nearby_routes": [
        "003",
        "004",
        "007",
        "008",
        "014",
        "016",
        "019",
        "020",
        "022",
        "209",
        "210",
        "211",
        "214",
        "N19",
        "N20",
        "N35",
        "N8",
        "R5"
      ]
    },
    {
      "id": "meal-van-54",
      "type": "meal",
      "name": "CityReach - Club Freedom Meal",
      "address": "2650 Slocan St, Vancouver, BC",
      "intersection": "Renfrew-Collingwood",
      "region": "east-van",
      "hours": "A Christ-centred worship service and hot meal",
      "phone": "",
      "lat": 49.261161,
      "lng": -123.048888,
      "notes": "Free. Wheelchair accessible",
      "nearby_routes": [
        "009",
        "016",
        "027",
        "099",
        "Millennium Line",
        "N9"
      ]
    },
    {
      "id": "meal-van-56",
      "type": "meal",
      "name": "Tenth Church - Oasis Cafe",
      "address": "11 W 10th Ave, Vancouver, BC",
      "intersection": "Mount Pleasant",
      "region": "mount-pleasant",
      "hours": "Mon 5:30-7:30pm, Tues 11am-1pm",
      "phone": "",
      "lat": 49.262351,
      "lng": -123.105783,
      "notes": "Free. Wheelchair accessible",
      "nearby_routes": [
        "003",
        "008",
        "009",
        "019",
        "099",
        "N19",
        "N8",
        "N9"
      ]
    },
    {
      "id": "meal-van-58",
      "type": "meal",
      "name": "Three Links Foundation - Sunday Free Breakfast",
      "address": "",
      "intersection": "",
      "region": "downtown",
      "hours": "Every Sunday, 9:30am to 11:30am",
      "phone": "",
      "lat": 49.26474,
      "lng": -123.136943,
      "notes": "Free. Wheelchair accessible; Takeout available",
      "nearby_routes": [
        "004",
        "007",
        "009",
        "010",
        "014",
        "016",
        "050",
        "084",
        "099",
        "N10",
        "N17",
        "N9"
      ]
    },
    {
      "id": "meal-van-60",
      "type": "meal",
      "name": "Food on the Corner",
      "address": "222 Main St, Vancouver, BC",
      "intersection": "Strathcona",
      "region": "downtown",
      "hours": "Sat 11am",
      "phone": "",
      "lat": 49.282721,
      "lng": -123.098575,
      "notes": "Free. ",
      "nearby_routes": [
        "003",
        "004",
        "007",
        "008",
        "014",
        "016",
        "019",
        "020",
        "022",
        "050",
        "209",
        "210",
        "211",
        "214",
        "N19",
        "N20",
        "N35",
        "N8",
        "R5"
      ]
    },
    {
      "id": "meal-van-62",
      "type": "meal",
      "name": "Guru Nanak's Free Kitchen",
      "address": "401 Main Street",
      "intersection": "Downtown",
      "region": "downtown",
      "hours": "Hot meal served Saturday 1pm, Sunday 12pm outside of Carnegie Centre",
      "phone": "",
      "lat": 49.28106,
      "lng": -123.100121,
      "notes": "Free. ",
      "nearby_routes": [
        "003",
        "004",
        "007",
        "008",
        "014",
        "016",
        "019",
        "020",
        "022",
        "023",
        "050",
        "209",
        "210",
        "211",
        "214",
        "N19",
        "N20",
        "N35",
        "N8",
        "R5"
      ]
    },
    {
      "id": "meal-van-63",
      "type": "meal",
      "name": "Seniors Lunch at Kitsilano Neighbourhood House",
      "address": "2305 West 7th Ave, Vancouver, BC",
      "intersection": "Kitsilano",
      "region": "kitsilano",
      "hours": "Tuesdays 11:00am \u2013 1:00pm",
      "phone": "",
      "lat": 49.265901,
      "lng": -123.158042,
      "notes": "Low cost. Wheelchair accessible",
      "nearby_routes": [
        "004",
        "007",
        "009",
        "014",
        "044",
        "084",
        "099",
        "N17"
      ]
    },
    {
      "id": "meal-van-66",
      "type": "meal",
      "name": "Union Gospel Mission - Meal Program",
      "address": "601 E Hastings St, Vancouver, BC",
      "intersection": "Strathcona",
      "region": "downtown",
      "hours": "Lunch every day at 11am (tickets at 10:45am)",
      "phone": "",
      "lat": 49.281483,
      "lng": -123.091066,
      "notes": "Free. Wheelchair accessible; Takeout available",
      "nearby_routes": [
        "004",
        "007",
        "014",
        "016",
        "020",
        "022",
        "209",
        "210",
        "211",
        "214",
        "N20",
        "N35"
      ]
    },
    {
      "id": "meal-van-68",
      "type": "meal",
      "name": "Collingwood N'hood House - Morning Star Breakfast",
      "address": "5288 Joyce St, Vancouver, BC",
      "intersection": "Renfrew-Collingwood",
      "region": "east-van",
      "hours": "Sat, 7am clothing and showers, 8-8:30am breakfast",
      "phone": "",
      "lat": 49.236608,
      "lng": -123.032888,
      "notes": "Free. Wheelchair accessible",
      "nearby_routes": [
        "019",
        "026",
        "027",
        "028",
        "041",
        "Expo Line",
        "N19",
        "R4"
      ]
    },
    {
      "id": "meal-van-69",
      "type": "meal",
      "name": "YWCA Crabtree Corner - Meal Programs",
      "address": "533 E Hastings St, Vancouver, BC",
      "intersection": "Strathcona",
      "region": "downtown",
      "hours": "Breakfast: Mon-Fri, 9-10am",
      "phone": "",
      "lat": 49.281501,
      "lng": -123.092398,
      "notes": "Free. Wheelchair accessible; Takeout available",
      "nearby_routes": [
        "004",
        "007",
        "014",
        "016",
        "020",
        "022",
        "209",
        "210",
        "211",
        "214",
        "N20",
        "N35",
        "R5"
      ]
    },
    {
      "id": "meal-van-71",
      "type": "meal",
      "name": "Carnegie Community Centre - Cafeteria",
      "address": "401 Main St, Vancouver, BC",
      "intersection": "Downtown",
      "region": "downtown",
      "hours": "Meals served daily",
      "phone": "",
      "lat": 49.28106,
      "lng": -123.100121,
      "notes": "Low cost. Wheelchair accessible",
      "nearby_routes": [
        "003",
        "004",
        "007",
        "008",
        "014",
        "016",
        "019",
        "020",
        "022",
        "023",
        "050",
        "209",
        "210",
        "211",
        "214",
        "N19",
        "N20",
        "N35",
        "N8",
        "R5"
      ]
    },
    {
      "id": "meal-van-72",
      "type": "meal",
      "name": "Muslim Care Centre - Meal Program",
      "address": "140 E Hastings St, Vancouver, BC",
      "intersection": "Downtown",
      "region": "downtown",
      "hours": "Mon-Fri at 5:30pm, Sat at 1pm, Sun at Noon",
      "phone": "",
      "lat": 49.281319,
      "lng": -123.101134,
      "notes": "Free. Wheelchair accessible; Takeout available",
      "nearby_routes": [
        "003",
        "004",
        "007",
        "008",
        "014",
        "016",
        "019",
        "020",
        "022",
        "023",
        "050",
        "209",
        "210",
        "211",
        "214",
        "N19",
        "N20",
        "N35",
        "N8",
        "R5"
      ]
    },
    {
      "id": "meal-van-73",
      "type": "meal",
      "name": "Kiwassa Neighbourhood House - Community Lunch",
      "address": "2425 Oxford St, Vancouver, BC",
      "intersection": "Hastings-Sunrise",
      "region": "east-van",
      "hours": "First & third Friday of the month, 12:15pm",
      "phone": "(604) 254-5401",
      "lat": 49.286005,
      "lng": -123.055856,
      "notes": "Low cost. Wheelchair accessible",
      "nearby_routes": [
        "004",
        "007",
        "209",
        "210",
        "211",
        "214"
      ]
    },
    {
      "id": "safe-van-1",
      "type": "safe_injection",
      "name": "Insite",
      "address": "139 E Hastings St",
      "intersection": "Downtown",
      "region": "downtown",
      "hours": "9am\u20132am daily",
      "phone": "604-687-7438",
      "lat": 49.281,
      "lng": -123.087,
      "notes": "Supervised consumption. Drug checking available at some sites.",
      "nearby_routes": [
        "004",
        "007",
        "014",
        "016",
        "020",
        "022",
        "209",
        "210",
        "211",
        "214",
        "N20",
        "N35"
      ]
    },
    {
      "id": "safe-van-2",
      "type": "safe_injection",
      "name": "Molson Overdose Prevention Site",
      "address": "166 E Hastings St",
      "intersection": "Downtown",
      "region": "downtown",
      "hours": "7am\u201310:30pm daily",
      "phone": "604-687-7438",
      "lat": 49.281,
      "lng": -123.086,
      "notes": "Supervised consumption. Drug checking available at some sites.",
      "nearby_routes": [
        "004",
        "007",
        "014",
        "016",
        "020",
        "209",
        "210",
        "211",
        "214",
        "N20",
        "N35"
      ]
    },
    {
      "id": "safe-van-3",
      "type": "safe_injection",
      "name": "Thomas Donaghy OPS",
      "address": "380 E Cordova St",
      "intersection": "Downtown",
      "region": "downtown",
      "hours": "Varies",
      "phone": "604-687-7438",
      "lat": 49.282,
      "lng": -123.098,
      "notes": "Supervised consumption. Drug checking available at some sites.",
      "nearby_routes": [
        "003",
        "004",
        "007",
        "008",
        "014",
        "016",
        "019",
        "020",
        "022",
        "023",
        "050",
        "209",
        "210",
        "211",
        "214",
        "N19",
        "N20",
        "N35",
        "N8",
        "R5"
      ]
    },
    {
      "id": "safe-van-4",
      "type": "safe_injection",
      "name": "Powell Street Getaway",
      "address": "528 Powell St",
      "intersection": "Downtown",
      "region": "downtown",
      "hours": "Varies",
      "phone": "604-687-7438",
      "lat": 49.283,
      "lng": -123.095,
      "notes": "Supervised consumption. Drug checking available at some sites.",
      "nearby_routes": [
        "003",
        "004",
        "007",
        "008",
        "014",
        "016",
        "019",
        "020",
        "022",
        "209",
        "210",
        "211",
        "214",
        "N19",
        "N20",
        "N35",
        "N8",
        "R5"
      ]
    }
  ]
}